,DEPOSIT_NAME,CRITICAL_MINERAL,DEPOSIT_TYPE,LATITUDE,LONGITUDE,LOCATION,LOC_DETAIL,geometry
0,Coeur d'Alene district,Antimony,Simple Sb,47.534069999630844,-116.24849999967523,United States of America,Idaho,POINT (-116.2484999996752 47.53406999963084)
1,Krasna Gora,Antimony,Au-Sb,49.581990000338294,14.335470000140447,Czech Republic,,POINT (14.33547000014045 49.58199000033829)
2,Hillgrove,Antimony,Au-Sb,-30.57138000028675,151.90686999985064,Australia,,POINT (151.9068699998506 -30.57138000028675)
3,Blue Spec,Antimony,Au-Sb,-21.829870000100357,120.24929000043323,Australia,,POINT (120.2492900004332 -21.82987000010036)
4,Becker Cochrane,Antimony,Simple Sb,60.18332999957988,-135.21665999975914,Canada,,POINT (-135.2166599997591 60.18332999957988)
5,La Cruz Mine Zone,Antimony,Disseminated Sb,18.25068000038175,-99.66702999973467,Mexico,,POINT (-99.66702999973467 18.25068000038175)
6,San Jose mines,Antimony,Simple Sb,23.549999999800207,-100.94999999960027,Mexico,,POINT (-100.9499999996003 23.54999999980021)
7,Brioude-Massiac,Antimony,Simple Sb,45.20610999997655,3.187500000025011,France,,POINT (3.187500000025011 45.20610999997655)
8,La Lucette,Antimony,Au-Sb,48.41659999979021,0.9500000000000455,France,,POINT (0.9500000000000455 48.41659999979021)
9,Sentachan,Antimony,Au-Sb,66.46166999987065,136.92511000042623,Russia,,POINT (136.9251100004262 66.46166999987065)
10,Lake George,Antimony,Disseminated Sb,45.86662999997458,-67.03259000012838,Canada,,POINT (-67.03259000012838 45.86662999997458)
11,Beaver Brook (Hunan),Antimony,Simple Sb,48.701412000263645,-55.23388499979285,Canada,,POINT (-55.23388499979285 48.70141200026364)
12,Olympiada,Antimony,Au-Sb,59.86988099960848,92.91800700002307,Russia,,POINT (92.91800700002307 59.86988099960848)
13,Sarylakh,Antimony,Au-Sb,64.34891999975827,142.52909999966528,Russia,,POINT (142.5290999996653 64.34891999975827)
14,Cutaway basin,Barite,Bedded-sedimentary,68.1499999997003,-157.45400000009988,United States of America,Alaska,POINT (-157.4540000000999 68.1499999997003)
15,Nevada,Barite,Bedded-sedimentary,40.58000000029983,-116.69600000039969,United States of America,Nevada,POINT (-116.6960000003997 40.58000000029983)
16,Flagstaff Mountain,Barite,Bedded-sedimentary,48.90799999970028,-117.86799999999994,United States of America,Washington,POINT (-117.8679999999999 48.90799999970028)
17,Ouachita Mountains,Barite,Bedded-sedimentary,34.47100000034976,-92.8160000000999,United States of America,Arkansas,POINT (-92.8160000000999 34.47100000034976)
18,Selwyn Basin,Barite,Bedded-sedimentary,63.00000000009999,-129.99999999999994,Canada,,POINT (-129.9999999999999 63.00000000009999)
19,Cuddapah,Barite,Bedded-sedimentary,14.019999999600373,79.32000000039977,India,,POINT (79.32000000039977 14.01999999960037)
20,Jiangnan,Barite,Bedded-sedimentary,27.14999999980023,109.16700000024986,China,,POINT (109.1670000002499 27.14999999980023)
21,Qinling,Barite,Bedded-sedimentary,30.000000000399723,109.99999999970026,China,,POINT (109.9999999997003 30.00000000039972)
22,Sardinia,Barite,Bedded-sedimentary,40.228999999850146,9.030000000399752,Italy,Sardinia,POINT (9.030000000399752 40.22899999985015)
23,Aggeneys-Gamsberg,Barite,Bedded-sedimentary,-29.249999999900012,18.789999999600354,South Africa,,POINT (18.78999999960035 -29.24999999990001)
24,Lasbela-Khuzdar,Barite,Bedded-sedimentary,27.059000000449714,66.66500000014992,Pakistan,,POINT (66.66500000014992 27.05900000044971)
25,Chiganak,Barite,Bedded-sedimentary,44.28400000019991,72.94599999990015,Kazakhstan,,POINT (72.94599999990015 44.28400000019991)
26,Neuquen-Mendoza,Barite,Bedded-sedimentary,-36.99999999970021,-70.00000000029974,Argentina,,POINT (-70.00000000029974 -36.99999999970021)
27,La Helvecia,Barite,Bedded-sedimentary,-29.900000000399643,-66.99899999975014,Argentina,,POINT (-66.99899999975014 -29.90000000039964)
28,Camamu,Barite,Bedded-sedimentary,-13.923999999700186,-39.00800000039965,Brazil,,POINT (-39.00800000039965 -13.92399999970019)
29,Sonora,Barite,Bedded-sedimentary,28.833000000249854,-110.13300000034968,Mexico,,POINT (-110.1330000003497 28.83300000024985)
30,Northern Thailand,Barite,Bedded-sedimentary,18.605000000149914,99.00899999965031,Thailand,,POINT (99.00899999965031 18.60500000014991)
31,Gertrudas-Jugua,Barite,Bedded-sedimentary,22.484999999950105,-83.7789999998501,Cuba,,POINT (-83.7789999998501 22.48499999995011)
32,Barite Hill,Barite,Bedded-volcanic,33.87499999985016,-82.28000000039964,United States of America,South Carolina,POINT (-82.28000000039964 33.87499999985016)
33,Zhayrem district,Barite,Bedded-volcanic,48.27000000039976,70.24199999980021,Kazakhstan,,POINT (70.24199999980021 48.27000000039976)
34,Kuroko,Barite,Bedded-volcanic,41.738000000000056,140.97600000010004,Japan,,POINT (140.9760000001 41.73800000000006)
35,Madneuli,Barite,Bedded-volcanic,44.491666999932136,41.361667000431794,Russia,,POINT (41.36166700043179 44.49166699993214)
36,Dorreh Kashan,Barite,Bedded-volcanic,32.84199999990011,51.76699999985016,Iran,,POINT (51.76699999985016 32.84199999990011)
37,Jebel Irhoud,Barite,"Vein, cavity-fill, metasomatic",31.576000000199883,-9.021999999999935,Morocco,,POINT (-9.021999999999935 31.57600000019988)
38,Zelmou,Barite,"Vein, cavity-fill, metasomatic",32.19999999960038,-2.7999999997001623,Morocco,,POINT (-2.799999999700162 32.19999999960038)
39,Flinders Range,Barite,"Vein, cavity-fill, metasomatic",-31.34399999960027,138.69199999970033,Australia,,POINT (138.6919999997003 -31.34399999960027)
40,Chaillac,Barite,"Vein, cavity-fill, metasomatic",46.43499999975023,1.297000000349783,France,,POINT (1.297000000349783 46.43499999975023)
41,Nghe An,Barite,"Vein, cavity-fill, metasomatic",19.3529999999501,105.40299999975025,Vietnam,,POINT (105.4029999997503 19.3529999999501)
42,Mau Xe,Barite,"Vein, cavity-fill, metasomatic",21.982999999550373,103.97500000005004,Vietnam,,POINT (103.97500000005 21.98299999955037)
43,Isparta,Barite,"Vein, cavity-fill, metasomatic",38.07599999980022,31.368000000399775,Turkey,,POINT (31.36800000039977 38.07599999980022)
44,Southeast Missouri Barite district,Barite,Residual,38.01214275208639,-90.72418222962614,United States of America,Missouri,POINT (-90.72418222962614 38.01214275208639)
45,Cartersville,Barite,Residual,34.161000000249885,-84.79799999990001,United States of America,Georgia,POINT (-84.79799999990001 34.16100000024989)
46,Tuareg massif,Beryllium,Non-pegmatite,23.283332999718198,5.516666999582412,Algeria,,POINT (5.516666999582412 23.2833329997182)
47,Sierras Pampeanas,Beryllium,Non-pegmatite,-31.99999999980008,-65.00000000039967,Argentina,,POINT (-65.00000000039967 -31.99999999980008)
48,Greenbushes,Beryllium; Lithium; Niobium and Tantalum; Tin,Pegmatite; Li-Cs-Ta type pegmatite; Hydrothermal,-33.86673299972813,116.06245800003671,Australia,,POINT (116.0624580000367 -33.86673299972813)
49,Brockman,Beryllium,Volcanogenic-hosted Be,-22.427290000433118,117.34130100024106,Australia,,POINT (117.3413010002411 -22.42729000043312)
50,Poona,Beryllium,Non-pegmatite,-26.96666670020801,117.466666700308,Australia,,POINT (117.466666700308 -26.96666670020801)
51,Curlew,Beryllium,Non-pegmatite,-21.17142999979461,119.74351999974829,Australia,,POINT (119.7435199997483 -21.17142999979461)
52,Menzies,Beryllium,Non-pegmatite,-29.943333000417567,121.12611099992273,Australia,,POINT (121.1261109999227 -29.94333300041757)
53,Londonderry,Beryllium,Pegmatite,-30.950000000099863,121.14999999990016,Australia,,POINT (121.1499999999002 -30.95000000009986)
54,Finniss River,Beryllium,Pegmatite,-12.950000000099863,130.4500000001999,Australia,,POINT (130.4500000001999 -12.95000000009986)
55,Wycheproof,Beryllium,Pegmatite,-36.08333300001789,143.2333330001179,Australia,,POINT (143.2333330001179 -36.08333300001789)
56,Mole Granite,Beryllium,Non-pegmatite,-30.51434249960664,151.666964400187,Australia,,POINT (151.666964400187 -30.51434249960664)
57,Torrington,Beryllium,Non-pegmatite,-29.31308899995736,151.6819149996776,Australia,,POINT (151.6819149996776 -29.31308899995736)
58,Habachtal,Beryllium,Non-pegmatite,47.20000000019991,12.366667000281893,Austria,,POINT (12.36666700028189 47.20000000019991)
59,Weinebene,Beryllium,Pegmatite,46.83916699955745,14.991943999715886,Austria,,POINT (14.99194399971589 46.83916699955745)
60,Diabazovoe,Beryllium,Non-pegmatite,52.23333000017942,27.86667000002052,Belarus,,POINT (27.86667000002052 52.23333000017942)
61,Rondonia,Beryllium,Non-pegmatite,-11.000000000399666,-62.99999999990001,Brazil,,POINT (-62.99999999990001 -11.00000000039967)
62,Santa Terezinha de Goiás,Beryllium,Non-pegmatite,-14.43333329959205,-49.69555999979411,Brazil,,POINT (-49.69555999979411 -14.43333329959205)
63,Taquaral,Beryllium,Pegmatite,-21.07194400031534,-48.41027800032941,Brazil,,POINT (-48.41027800032941 -21.07194400031534)
64,Minas Gerais,Beryllium,Be Type Rare-Metal Pegmatite,-19.816700000204776,-43.95000000019979,Brazil,,POINT (-43.95000000019979 -19.81670000020478)
65,Humaitá,Beryllium,Pegmatite,-21.769722200419153,-43.49027780008038,Brazil,,POINT (-43.49027780008038 -21.76972220041915)
66,Jaguaraçú,Beryllium,Pegmatite,-19.525806999893064,-42.64112600006479,Brazil,,POINT (-42.64112600006479 -19.52580699989306)
67,Aracuai,Beryllium,Pegmatite,-16.778610999797763,-41.91055600005933,Brazil,,POINT (-41.91055600005933 -16.77861099979776)
68,Maxixe,Beryllium,Pegmatite,-16.803610999747775,-41.88999999999993,Brazil,,POINT (-41.88999999999993 -16.80361099974778)
69,Brumado,Beryllium,Non-pegmatite,-14.233332999618199,-41.666666999982,Brazil,,POINT (-41.666666999982 -14.2333329996182)
70,Galiléia,Beryllium,Pegmatite,-18.996299999944995,-41.534800000119844,Brazil,,POINT (-41.53480000011984 -18.99629999994499)
71,Sapucaia,Beryllium,Pegmatite,-18.90083299964317,-41.48444399999056,Brazil,,POINT (-41.48444399999056 -18.90083299964317)
72,Lavra do Urucum,Beryllium,Pegmatite,-19.0230559999344,-41.45999999960026,Brazil,,POINT (-41.45999999960026 -19.0230559999344)
73,Socotó,Beryllium,Non-pegmatite,-10.310099999914996,-40.810800000019924,Brazil,,POINT (-40.81080000001992 -10.310099999915)
74,Carnaiba,Beryllium,Non-pegmatite,-10.397849999577772,-40.58227199965302,Brazil,,POINT (-40.58227199965302 -10.39784999957777)
75,Rila Mountains,Beryllium,Pegmatite,42.133300000095005,23.549999999800207,Bulgaria,,POINT (23.54999999980021 42.13330000009501)
76,Logtung,Beryllium,Non-pegmatite,59.999999999800195,-131.6000000003997,Canada,,POINT (-131.6000000003997 59.9999999998002)
77,Finlayson Lake,Beryllium,Non-pegmatite,61.691389000402125,-130.7738890002771,Canada,,POINT (-130.7738890002771 61.69138900040213)
78,Yellowknife field,Beryllium,Pegmatite,62.44222200044504,-114.39750000042466,Canada,,POINT (-114.3975000004247 62.44222200044504)
79,FI,Beryllium,Pegmatite,62.5001200003378,-113.00135000000245,Canada,,POINT (-113.0013500000024 62.5001200003378)
80,Violet,Beryllium,Pegmatite,54.88733599975666,-100.02178599982398,Canada,,POINT (-100.021785999824 54.88733599975666)
81,High Grade Dyke pegmatite,Beryllium,Pegmatite,56.615299999895115,-95.83609990029015,Canada,,POINT (-95.83609990029015 56.61529999989511)
82,Shatford Lake,Beryllium,Pegmatite,50.39189989996049,-95.49999989987543,Canada,,POINT (-95.49999989987543 50.39189989996049)
83,Bernic Lake,Beryllium,Be Type Rare-Metal Pegmatite,50.417268800015165,-95.43617249976103,Canada,,POINT (-95.43617249976103 50.41726880001517)
84,Buck-Coe-Pegli pegmatite,Beryllium,Pegmatite,50.41780099991627,-95.38501699963479,Canada,,POINT (-95.38501699963479 50.41780099991627)
85,Silver Leaf-Greer Lake,Beryllium,Pegmatite,50.35059990016532,-95.26859999998999,Canada,,POINT (-95.26859999998999 50.35059990016532)
86,Yitt pegmatite,Beryllium,Pegmatite,51.727300000095,-91.82280000001992,Canada,,POINT (-91.82280000001992 51.727300000095)
87,Nama Creek,Beryllium,Pegmatite,49.00001900017679,-86.99997700033828,Canada,,POINT (-86.99997700033828 49.00001900017679)
88,James Bay (Lithium One),Beryllium,Be Type Rare-Metal Pegmatite,52.20141399965644,-78.50620299956876,Canada,,POINT (-78.50620299956876 52.20141399965644)
89,Height of Land Mine,Beryllium,Pegmatite,48.42694400016552,-78.34527799967992,Canada,,POINT (-78.34527799967992 48.42694400016552)
90,Québec Lithium,Beryllium,Pegmatite,48.410833000043,-77.80916700005696,Canada,,POINT (-77.80916700005696 48.410833000043)
91,Beryl Pit,Beryllium,Pegmatite,45.31416699990717,-77.37833299986801,Canada,,POINT (-77.37833299986801 45.31416699990717)
92,Matthews Yankee,Beryllium,Pegmatite,44.58330900011032,-76.41629000038319,Canada,,POINT (-76.41629000038319 44.58330900011032)
93,Mont Saint-Hilaire,Beryllium,Non-pegmatite,45.562778000104686,-73.14166700003199,Canada,,POINT (-73.14166700003199 45.56277800010469)
94,New Brunswick,Beryllium,Non-pegmatite,46.565316300407005,-66.4619164004215,Canada,,POINT (-66.4619164004215 46.56531630040701)
95,Nova Scotia,Beryllium,Non-pegmatite,44.681986599901734,-63.744310999552965,Canada,,POINT (-63.74431099955297 44.68198659990173)
96,Prince Edward Island,Beryllium,Non-pegmatite,46.23824000027582,-63.13107040007884,Canada,,POINT (-63.13107040007884 46.23824000027582)
97,Mann #1,Beryllium,Non-pegmatite,54.23333299991805,-62.383332999618176,Canada,,POINT (-62.38333299961818 54.23333299991805)
98,Seal Lake,Beryllium,Peralkaline intrusion Be,54.23333299991805,-62.383332999618176,Canada,,POINT (-62.38333299961818 54.23333299991805)
99,Nain Complex,Beryllium,Non-pegmatite,56.5222220000453,-61.52805599988443,Canada,,POINT (-61.52805599988443 56.5222220000453)
100,Barkam,Beryllium,Pegmatite,31.905324000202484,102.21280799978939,China,,POINT (102.2128079997894 31.90532400020248)
101,Jiuquling,Beryllium,Pegmatite,22.93333300041769,111.95833299966824,China,,POINT (111.9583329996682 22.93333300041769)
102,Nanshan,Beryllium,Pegmatite,22.533009999811668,113.9304700003903,China,,POINT (113.9304700003903 22.53300999981167)
103,Shirenzhang-Meiziwo,Beryllium,Pegmatite,24.800000000000068,114.2250000002499,China,,POINT (114.2250000002499 24.80000000000007)
104,Huanggang,Beryllium,Pegmatite,30.45000000039977,114.80000000000007,China,,POINT (114.8000000000001 30.45000000039977)
105,Baishizhang,Beryllium,Pegmatite,24.0166670003818,115.53333299971825,China,,POINT (115.5333329997183 24.0166670003818)
106,Huangzhen-Zhujiachong,Beryllium,Pegmatite,30.466667000082055,116.15000000000009,China,,POINT (116.1500000000001 30.46666700008205)
107,Wanfengshan,Beryllium,Non-pegmatite,23.891111099997318,116.62638890032758,China,,POINT (116.6263889003276 23.89111109999732)
108,Shixi,Beryllium,Non-pegmatite,30.583333000417667,119.87499999975023,China,,POINT (119.8749999997502 30.58333300041767)
109,Baerzhe,Beryllium,Non-pegmatite,45.45555600000944,120.47500000034984,China,,POINT (120.4750000003498 45.45555600000944)
110,Dongshanwan,Beryllium,Pegmatite,45.98115000027235,127.80394000013098,China,,POINT (127.803940000131 45.98115000027235)
111,Peñas Blancas,Beryllium,Non-pegmatite,5.501389000102336,-75.7763889997525,Colombia,,POINT (-75.7763889997525 5.501389000102336)
112,Muzo,Beryllium,Non-pegmatite,5.5313890004021005,-74.10388899967757,Colombia,,POINT (-74.10388899967757 5.5313890004021)
113,Gachalá,Beryllium,Non-pegmatite,4.699166999957129,-73.52277799960495,Colombia,,POINT (-73.52277799960495 4.699166999957129)
114,Somondoco,Beryllium,Non-pegmatite,4.983333000317771,-73.42805600038406,Colombia,,POINT (-73.42805600038406 4.983333000317771)
115,Chivor,Beryllium,Non-pegmatite,4.903611000347439,-73.36888900042698,Colombia,,POINT (-73.36888900042698 4.903611000347439)
116,Otov,Beryllium,Pegmatite,49.48649999987515,12.842499999975075,Czech Republic,,POINT (12.84249999997508 49.48649999987515)
117,Sušice,Beryllium,Pegmatite,49.23106000041872,13.5201799999071,Czech Republic,,POINT (13.5201799999071 49.23106000041872)
118,Bližná,Beryllium,Pegmatite,48.722419999583394,14.095159999634348,Czech Republic,,POINT (14.09515999963435 48.72241999958339)
119,Kostelní Vydrí,Beryllium,Pegmatite,49.1077999999701,15.422800000020061,Czech Republic,,POINT (15.42280000002006 49.1077999999701)
120,Kracovice,Beryllium,Pegmatite,49.193830000354296,15.840260000398757,Czech Republic,,POINT (15.84026000039876 49.1938300003543)
121,Vežná,Beryllium,Pegmatite,49.44777800025457,16.274721999720555,Czech Republic,,POINT (16.27472199972055 49.44777800025457)
122,Sekeit,Beryllium,Non-pegmatite,24.700000000199907,34.77499999985014,Egypt,,POINT (34.77499999985014 24.70000000019991)
123,Cornwall,Beryllium,Non-pegmatite,50.13083299984311,-5.701389000402003,England,,POINT (-5.701389000402003 50.13083299984311)
124,Eujaroki,Beryllium,Non-pegmatite,61.202356199579015,21.733984499585063,Finland,,POINT (21.73398449958506 61.20235619957901)
125,Rosendal,Beryllium,Pegmatite,60.112220000152945,22.57444000020587,Finland,,POINT (22.57444000020587 60.11222000015294)
126,Kimito,Beryllium,Pegmatite,60.163900000184924,22.727800000169907,Finland,,POINT (22.72780000016991 60.16390000018492)
127,Hirvikallio,Beryllium,Pegmatite,60.72633377028734,23.621082179598943,Finland,,POINT (23.62108217959894 60.72633377028734)
128,Pyörönmaa,Beryllium,Pegmatite,61.31508000014196,23.97686999975076,Finland,,POINT (23.97686999975076 61.31508000014196)
129,Kangasala,Beryllium,Pegmatite,61.466667000181985,24.066667000281882,Finland,,POINT (24.06666700028188 61.46666700018199)
130,Viitaniemi,Beryllium,Pegmatite,61.584443999590974,24.67722200019523,Finland,,POINT (24.67722200019523 61.58444399959097)
131,Kymi,Beryllium,Non-pegmatite,60.581149900047876,26.8989086001518,Finland,,POINT (26.8989086001518 60.58114990004788)
132,Schwarzwald,Beryllium,Non-pegmatite,48.36666700028189,8.2166669995824,Germany,,POINT (8.216666999582401 48.36666700028189)
133,Triberg,Beryllium,Non-pegmatite,48.1362999996453,8.236499999575358,Germany,,POINT (8.236499999575358 48.1362999996453)
134,Aschaffenburg,Beryllium,Pegmatite,49.96527799958005,9.184166999807246,Germany,,POINT (9.184166999807246 49.96527799958005)
135,Fichtelgebirge,Beryllium,Pegmatite,50.00000000000006,12.000000000399723,Germany,,POINT (12.00000000039972 50.00000000000006)
136,Hagendorf-Süd,Beryllium,Pegmatite,49.65027800002974,12.459721999970384,Germany,,POINT (12.45972199997038 49.65027800002974)
137,Königshein,Beryllium,Pegmatite,50.96666670010819,12.88333330019168,Germany,,POINT (12.88333330019168 50.96666670010819)
138,Greifenstein,Beryllium,Pegmatite,50.64861100029748,12.931110999772898,Germany,,POINT (12.9311109997729 50.64861100029748)
139,Tittling,Beryllium,Pegmatite,48.727778000254546,13.381110999772886,Germany,,POINT (13.38111099977289 48.72777800025455)
140,Ivigtut,Beryllium,Non-pegmatite,61.20611100042237,-48.17555600030914,Greenland,,POINT (-48.17555600030914 61.20611100042237)
141,Kvanefjeld,Beryllium,Peralkaline intrusion Be,60.97499999965032,-45.991667000331745,Greenland,,POINT (-45.99166700033174 60.97499999965032)
142,Trivandrum,Beryllium,Pegmatite,8.483332999618312,76.98333300031777,India,,POINT (76.98333300031777 8.483332999618312)
143,Val Vigezzo,Beryllium,Pegmatite,46.12888900002736,8.413888999677624,Italy,,POINT (8.413888999677624 46.12888900002736)
144,Baveno,Beryllium,Pegmatite,45.91666699978225,8.500000000199918,Italy,,POINT (8.500000000199918 45.91666699978225)
145,Cuasso al Monte,Beryllium,Pegmatite,45.86666699988217,8.866667000082032,Italy,,POINT (8.866667000082032 45.86666699988217)
146,Chiavenna Mountain,Beryllium,Pegmatite,46.31669999960536,9.400000000199896,Italy,,POINT (9.400000000199896 46.31669999960536)
147,Kobe,Beryllium,Pegmatite,34.69109999966531,135.1973000001949,Japan,,POINT (135.1973000001949 34.69109999966531)
148,Aqshatau,Beryllium,Skarn and Greisen-Hosted Be-F,47.98111099987278,74.05611099992274,Kazakhstan,,POINT (74.05611099992274 47.98111099987278)
149,Bota Burum,Beryllium,Pegmatite,46.166667000181974,81.58333300011793,Kazakhstan,,POINT (81.58333300011793 46.16666700018197)
150,Zhanuzak,Beryllium,Pegmatite,49.68513000014946,82.17265999955941,Kazakhstan,,POINT (82.17265999955941 49.68513000014946)
151,Kokshetau,Beryllium,Non-pegmatite,53.277778000154626,69.38888900012734,Kazakhstan,,POINT (69.38888900012734 53.27777800015463)
152,Elenovsk Complex,Beryllium,Non-pegmatite,53.33333299991807,69.41666699958245,Kazakhstan,,POINT (69.41666699958245 53.33333299991807)
153,Qaraoba,Beryllium,Non-pegmatite,47.266666999782274,72.24999999960033,Kazakhstan,,POINT (72.24999999960033 47.26666699978227)
154,Kounrad,Beryllium,Non-pegmatite,47.018889000227205,75.13499999995008,Kazakhstan,,POINT (75.13499999995008 47.0188890002272)
155,Qatpar,Beryllium,Non-pegmatite,52.68832619999421,76.48688510036715,Kazakhstan,,POINT (76.48688510036715 52.68832619999421)
156,Verkhnee Espe,Beryllium,Non-pegmatite,48.100000000199884,81.45000000009998,Kazakhstan,,POINT (81.45000000009998 48.10000000019988)
157,Ampandramaika pegmatite,Beryllium,Pegmatite,-20.848349999952518,45.87385000017741,Madagascar,,POINT (45.87385000017741 -20.84834999995252)
158,Bemokto,Beryllium,Pegmatite,-21.149999999900047,45.950000000000045,Madagascar,,POINT (45.95000000000005 -21.14999999990005)
159,Ambatovita,Beryllium,Pegmatite,-20.74666699988211,46.07499999975022,Madagascar,,POINT (46.07499999975022 -20.74666699988211)
160,Anjanabonoina,Beryllium,Rare-metal pegmatite,-19.91666700028179,46.53333300001799,Madagascar,,POINT (46.53333300001799 -19.91666700028179)
161,Ambatonapetraka (Miandrarivo),Beryllium,Pegmatite,-19.97861099969782,46.95111099977288,Madagascar,,POINT (46.95111099977288 -19.97861099969782)
162,Antsofimbato,Beryllium,Pegmatite,-19.984722000020213,46.95222199974552,Madagascar,,POINT (46.95222199974552 -19.98472200002021)
163,Bemasoandrao pegmatite,Beryllium,Pegmatite,-21.453599999840094,47.08580000026984,Madagascar,,POINT (47.08580000026984 -21.45359999984009)
164,Malakialina,Beryllium,Pegmatite,-18.66667000022028,47.20000000019991,Madagascar,,POINT (47.20000000019991 -18.66667000022028)
165,Madagascar,Beryllium,Non-pegmatite,-18.371400000409665,47.54239999976022,Madagascar,,POINT (47.54239999976022 -18.37140000040966)
166,Marivolanitra,Beryllium,Pegmatite,-18.16667000032021,48.00000000039978,Madagascar,,POINT (48.00000000039978 -18.16667000032021)
167,Ambodibonara pegmatite,Beryllium,Pegmatite,-13.158490000013444,48.85510999962685,Madagascar,,POINT (48.85510999962685 -13.15849000001344)
168,Khaldzan-Burgtey,Beryllium,Pegmatite,48.40861100009761,91.95083300044269,Mongolia,,POINT (91.95083300044269 48.40861100009761)
169,Altai,Beryllium,Non-pegmatite,48.538889000427105,92.92499999965031,Mongolia,,POINT (92.92499999965031 48.5388890004271)
170,Altai #3,Beryllium,Pegmatite,46.37277800010469,96.25722199959569,Mongolia,,POINT (96.25722199959569 46.37277800010469)
171,Hutag Ull Ord,Beryllium,Pegmatite,49.39499999995007,102.69332999987967,Mongolia,,POINT (102.6933299998797 49.39499999995007)
172,Goricho,Beryllium,Pegmatite,48.15020000032979,107.57600000029981,Mongolia,,POINT (107.5760000002998 48.15020000032979)
173,Undur Tsagaan,Beryllium,Pegmatite,47.866667000381824,110.16666699998211,Mongolia,,POINT (110.1666669999821 47.86666700038182)
174,Buren-Tsogto Mine,Beryllium,Pegmatite,46.73333299961831,111.7166669995824,Mongolia,,POINT (111.7166669995824 46.73333299961831)
175,Khukh-Del-Ula,Beryllium,Pegmatite,50.09999999980022,114.66669999970532,Mongolia,,POINT (114.6666999997053 50.09999999980022)
176,Yugozor mine,Beryllium,Pegmatite,45.900000000099965,115.3999999997003,Mongolia,,POINT (115.3999999997003 45.90000000009996)
177,Muambe,Beryllium,Non-pegmatite,-16.323060000118858,34.09417000034529,Mozambique,,POINT (34.09417000034529 -16.32306000011886)
178,Donkerhoek,Beryllium,Pegmatite,-23.633329999579757,15.966670000420208,Namibia,,POINT (15.96667000042021 -23.63332999957976)
179,Taghouaji,Beryllium,Non-pegmatite,17.161667000231944,8.510832999743172,Niger,,POINT (8.510832999743172 17.16166700023194)
180,Nasarawa Eggon,Beryllium,Pegmatite,8.529439999856152,7.724170000345282,Nigeria,,POINT (7.724170000345282 8.529439999856152)
181,Ririwai,Beryllium,Non-pegmatite,10.440000000099985,8.439999999600332,Nigeria,,POINT (8.439999999600332 10.44000000009999)
182,Nandu,Beryllium,Pegmatite,9.233329999779698,8.516670000020554,Nigeria,,POINT (8.516670000020554 9.233329999779698)
183,Saiya-Shokobo,Beryllium,Non-pegmatite,10.383333000317748,8.933332999618301,Nigeria,,POINT (8.933332999618301 10.38333300031775)
184,Sabon Wana,Beryllium,Pegmatite,9.166667000381835,9.750000000399723,Nigeria,,POINT (9.750000000399723 9.166667000381835)
185,Bauchi,Beryllium,Pegmatite,10.309819999793206,9.845171999688091,Nigeria,,POINT (9.845171999688091 10.30981999979321)
186,Skarsfjell,Beryllium,Pegmatite,58.73457999986715,5.745200000179921,Norway,,POINT (5.745200000179921 58.73457999986715)
187,Evje-Iveland,Beryllium,Pegmatite,58.59999999990015,7.849999999700287,Norway,,POINT (7.849999999700287 58.59999999990015)
188,Heftetjern,Beryllium,Pegmatite,59.18333299991809,8.749999999700265,Norway,,POINT (8.749999999700265 59.18333299991809)
189,Tørdal district,Beryllium,Pegmatite,59.1499999997003,8.799999999600345,Norway,,POINT (8.799999999600345 59.1499999997003)
190,Høydalen,Beryllium,Pegmatite,59.13999999990011,9.266000000000076,Norway,,POINT (9.266000000000076 59.13999999990011)
191,Langesundsfjord,Beryllium,Pegmatite,59.0004999996753,9.74729999999505,Norway,,POINT (9.74729999999505 59.0004999996753)
192,Byrud Minnesund,Beryllium,Non-pegmatite,60.3940558004349,11.220778599552773,Norway,,POINT (11.22077859955277 60.3940558004349)
193,Eidsvoll,Beryllium,Non-pegmatite,60.31670000040475,11.233299999795179,Norway,,POINT (11.23329999979518 60.31670000040475)
194,Høgtuva Mountain,Beryllium,Pegmatite,66.40416700020694,13.876388999552717,Norway,,POINT (13.87638899955272 66.40416700020694)
195,Makhad,Beryllium,Non-pegmatite,33.1307985996757,71.7392639003088,Pakistan,,POINT (71.7392639003088 33.1307985996757)
196,Gujar Kili,Beryllium,Non-pegmatite,35.31666700028188,71.83333299981814,Pakistan,,POINT (71.83333299981814 35.31666700028188)
197,Swat,Beryllium,Non-pegmatite,34.793333099742824,72.28893080021629,Pakistan,,POINT (72.28893080021629 34.79333309974282)
198,Mingora,Beryllium,Non-pegmatite,34.783300000394775,72.3666999997053,Pakistan,,POINT (72.3666999997053 34.78330000039477)
199,Charbagh,Beryllium,Non-pegmatite,34.83333330039153,72.44166670035798,Pakistan,,POINT (72.44166670035798 34.83333330039153)
200,Stak Nala,Beryllium,Pegmatite,35.699999999800184,74.06666700018195,Pakistan,,POINT (74.06666700018195 35.69999999980018)
201,Khaltaro,Beryllium,Pegmatite,36.19779360029446,74.08516649983414,Pakistan,,POINT (74.08516649983414 36.19779360029446)
202,Gilgit,Beryllium,Non-pegmatite,35.95203499961559,74.59319210003542,Pakistan,,POINT (74.59319210003542 35.95203499961559)
203,Shengus,Beryllium,Pegmatite,35.81666700018195,74.81666699958242,Pakistan,,POINT (74.81666699958242 35.81666700018195)
204,Indus Suture,Beryllium,Non-pegmatite,31.00000000019992,87.99999999960033,China,,POINT (87.99999999960033 31.00000000019992)
205,Macusani,Beryllium,Non-pegmatite,-14.14529187681859,-70.23599519662099,Peru,,POINT (-70.23599519662099 -14.14529187681859)
206,Strzegom,Beryllium,Pegmatite,50.98333300011791,16.333333000117932,Poland,,POINT (16.33333300011793 50.98333300011791)
207,Western Iberia,Beryllium,Non-pegmatite,41.76361100024752,-6.73499999975013,Portugal,,POINT (-6.73499999975013 41.76361100024752)
208,Pitkäranta,Beryllium,Non-pegmatite,61.57500000024987,31.477777800005526,Russia,,POINT (31.47777780000553 61.57500000024987)
209,Murmansk,Beryllium,Pegmatite,68.9543000003448,33.10760000023987,Russia,,POINT (33.10760000023987 68.9543000003448)
210,Orlinogorski,Beryllium,Non-pegmatite,68.1499999997003,33.28333300041771,Russia,,POINT (33.28333300041771 68.1499999997003)
211,Khibiny,Beryllium,Pegmatite,67.61666699958243,33.88333300011789,Russia,,POINT (33.88333300011789 67.61666699958243)
212,Western Keivy,Beryllium,Pegmatite,67.63333300011794,36.69999999960038,Russia,,POINT (36.69999999960038 67.63333300011794)
213,Voznesenkoye,Beryllium,Skarn and Greisen-Hosted Be-F,44.559819999693275,41.033989999938626,Russia,,POINT (41.03398999993863 44.55981999969327)
214,Mursink,Beryllium,Pegmatite,57.00000000039978,61.466667000181985,Russia,,POINT (61.46666700018199 57.00000000039978)
215,Troitsky,Beryllium,Non-pegmatite,54.08333329969207,61.56666669960856,Russia,,POINT (61.56666669960856 54.08333329969207)
216,Reft River,Beryllium,Non-pegmatite,57.05364500021665,61.82667499965157,Russia,,POINT (61.82667499965157 57.05364500021665)
217,Boevskoe,Beryllium,Non-pegmatite,56.416667000381835,62.03333299961827,Russia,,POINT (62.03333299961827 56.41666700038184)
218,Upper Tura River,Beryllium,Pegmatite,57.150000000099965,65.53333299981813,Russia,,POINT (65.53333299981813 57.15000000009996)
219,Marinksy,Beryllium,Non-pegmatite,56.21666670040793,87.75000000009999,Russia,,POINT (87.75000000009999 56.21666670040793)
220,Ermakovskoe,Beryllium,Non-pegmatite,52.5035117999297,92.59326580037646,Russia,,POINT (92.59326580037646 52.5035117999297)
221,Kyzyl City,Beryllium,Non-pegmatite,51.71666699988219,94.4500000001999,Russia,,POINT (94.45000000019991 51.71666699988219)
222,Buryatia,Beryllium,Non-pegmatite,54.83311460015875,112.4060528999214,Russia,,POINT (112.4060528999214 54.83311460015875)
223,Sherlova Gora,Beryllium,Non-pegmatite,50.52000000039976,116.29999999970028,Russia,,POINT (116.2999999997003 50.52000000039976)
224,Baid al Jimalah,Beryllium,Non-pegmatite,25.150000000199896,42.69166699993218,Saudi Arabia,,POINT (42.69166699993218 25.1500000001999)
225,Gravelotte,Beryllium; Titanium,Non-pegmatite; Sedimentary related,-23.949999999700196,30.61666699978224,South Africa,,POINT (30.61666699978224 -23.9499999997002)
226,Noumas,Beryllium,Pegmatite,-29.81670000000497,22.550000000000068,South Africa,,POINT (22.55000000000007 -29.81670000000497)
227,Franqueira,Beryllium,Non-pegmatite,42.18217999960734,-8.35985000037715,Spain,,POINT (-8.359850000377151 42.18217999960734)
228,Forcarei,Beryllium,Pegmatite,42.59229999964532,-8.350900000434649,Spain,,POINT (-8.350900000434649 42.59229999964532)
229,Galicia,Beryllium,Non-pegmatite,42.57511100017257,-8.133866000415537,Spain,,POINT (-8.133866000415537 42.57511100017257)
230,Ratnapura,Beryllium,Non-pegmatite,6.666666999982112,80.40000000039976,Sri Lanka,,POINT (80.40000000039976 6.666666999982112)
231,Sri Lanka,Beryllium,Pegmatite,7.565299999895103,80.43030000014494,Sri Lanka,,POINT (80.43030000014494 7.565299999895103)
232,Elahera,Beryllium,Non-pegmatite,7.715000000149928,80.78472200012027,Sri Lanka,,POINT (80.78472200012027 7.715000000149928)
233,Högsbo,Beryllium,Pegmatite,57.663610999947764,11.945555999709654,Sweden,,POINT (11.94555599970965 57.66361099994776)
234,Klintberget,Beryllium,Pegmatite,59.98333300011791,13.93333300041769,Sweden,,POINT (13.93333300041769 59.98333300011791)
235,Långban,Beryllium,Pegmatite,59.8536110002475,14.259443999740824,Sweden,,POINT (14.25944399974082 59.8536110002475)
236,Stora Vika,Beryllium,Pegmatite,58.93333300041769,17.799999999600345,Sweden,,POINT (17.79999999960035 58.93333300041769)
237,Stockholm area,Beryllium,Pegmatite,59.32944400014054,18.068611000297494,Sweden,,POINT (18.06861100029749 59.32944400014054)
238,Rånö,Beryllium,Pegmatite,58.9330999995654,18.183100000064996,Sweden,,POINT (18.183100000065 58.9330999995654)
239,Norrö,Beryllium,Pegmatite,59.499999999900126,18.26666700018194,Sweden,,POINT (18.26666700018194 59.49999999990013)
240,Utö,Beryllium; Lithium,Pegmatite,58.96666699978226,18.31666700008202,Sweden,,POINT (18.31666700008202 58.96666699978226)
241,Nyköping,Beryllium,Pegmatite,58.98333300031777,18.33333299971821,Sweden,,POINT (18.33333299971821 58.98333300031777)
242,Ytterby,Beryllium,Pegmatite,59.42666699958244,18.353333000217845,Sweden,,POINT (18.35333300021784 59.42666699958244)
243,Varuträsk,Beryllium; Lithium,Pegmatite,64.80083299984312,20.741111000172566,Sweden,,POINT (20.74111100017257 64.80083299984312)
244,Blauberg,Beryllium,Non-pegmatite,46.62000000009999,8.490000000399732,Switzerland,,POINT (8.490000000399732 46.62000000009999)
245,Griesserental,Beryllium,Non-pegmatite,46.766666999882204,8.733333000017979,Switzerland,,POINT (8.733333000017979 46.7666669998822)
246,Rangkul',Beryllium,Pegmatite,38.4730559999345,74.25388899957773,Tajikistan,,POINT (74.25388899957773 38.4730559999345)
247,Phuket Island,Beryllium,Non-pegmatite,7.889999999800182,98.39830000024489,Thailand,,POINT (98.39830000024489 7.889999999800182)
248,Khao Kata Kwham,Beryllium,Non-pegmatite,8.583333000317737,98.50000000019992,Thailand,,POINT (98.50000000019992 8.583333000317737)
249,Perga,Beryllium,Non-pegmatite,51.39806000036879,27.894440000006057,Ukraine,,POINT (27.89444000000606 51.39806000036879)
250,Korosten pluton,Beryllium,Pegmatite,50.999999999800195,28.499999999800195,Ukraine,,POINT (28.4999999998002 50.9999999998002)
251,Seward Peninsula,Beryllium,Skarn and Greisen-Hosted Be-F,65.53694399996567,-167.14333299961822,United States of America,Alaska,POINT (-167.1433329996182 65.53694399996567)
252,Golden Horn batholith,Beryllium,Pegmatite,48.52416699960742,-120.65305600043405,United States of America,Washington,POINT (-120.653056000434 48.52416699960742)
253,Oreana,Beryllium,Non-pegmatite,38.8649999999501,-119.4772200002028,United States of America,Nevada,POINT (-119.4772200002028 38.8649999999501)
254,Steamboat Springs,Beryllium,Pegmatite,38.58888899962767,-119.3777780000546,United States of America,Nevada,POINT (-119.3777780000546 38.58888899962767)
255,Mount Wheeler,Beryllium,Veins,38.67769310005656,-119.11681760035196,United States of America,Nevada,POINT (-119.116817600352 38.67769310005656)
256,Birch Creek,Beryllium,Non-pegmatite,37.37444399959094,-118.13611100012253,United States of America,California,POINT (-118.1361110001225 37.37444399959094)
257,Golconda,Beryllium,Pegmatite,40.950000000099976,-117.48333300011785,United States of America,Nevada,POINT (-117.4833330001179 40.95000000009998)
258,Pala Chief Mine,Beryllium,Pegmatite,33.387499999925126,-117.0513890000023,United States of America,California,POINT (-117.0513890000023 33.38749999992513)
259,Mesa Mountain,Beryllium,Pegmatite,33.293056000034426,-116.9647219999203,United States of America,California,POINT (-116.9647219999203 33.29305600003443)
260,Rincon Mountain,Beryllium,Pegmatite,33.28805599968467,-116.95833300026771,United States of America,California,POINT (-116.9583330002677 33.28805599968467)
261,Clark Extension,Beryllium,Pegmatite,33.257778000054714,-116.93777800025447,United States of America,California,POINT (-116.9377780002545 33.25777800005471)
262,Himalaya,Beryllium,Pegmatite,33.21194399981579,-116.79777800035441,United States of America,California,POINT (-116.7977780003544 33.21194399981579)
263,Sawtooth,Beryllium,Pegmatite,43.912777999804916,-115.89138899980247,United States of America,Idaho,POINT (-115.8913889998025 43.91277799980492)
264,McCullough Butte,Beryllium,Carbonate-hosted Be,35.60289300031178,-115.18008199958456,United States of America,Nevada,POINT (-115.1800819995846 35.60289300031178)
265,Alphabet Group Prospect,Beryllium,Pegmatite,43.95277799990481,-114.9811109997728,United States of America,Idaho,POINT (-114.9811109997728 43.95277799990481)
266,Magnet Cove,Beryllium,Pegmatite,34.88333299991808,-113.9499999997002,United States of America,Arizona,POINT (-113.9499999997002 34.88333299991808)
267,Rodenhouse Wash,Beryllium,Pegmatite/granite Be,40.118333000067935,-113.79833299956823,United States of America,Utah,POINT (-113.7983329995682 40.11833300006793)
268,Gold Hill,Beryllium,Veins,40.1613889999025,-113.79000000019983,United States of America,Utah,POINT (-113.7900000001998 40.1613889999025)
269,Honeycomb Hills,Beryllium,Non-pegmatite,39.70583299999299,-113.58694399996557,United States of America,Utah,POINT (-113.5869439999656 39.70583299999299)
270,Tungstona mine,Beryllium,Non-pegmatite,34.62944400004062,-113.15416700010695,United States of America,Arizona,POINT (-113.154167000107 34.62944400004062)
271,Black Pearl mine,Beryllium,Non-pegmatite,34.6872219997955,-113.03444399999057,United States of America,Arizona,POINT (-113.0344439999906 34.6872219997955)
272,Wah-Wah,Beryllium,Non-pegmatite,38.439444000340416,-112.71583300029272,United States of America,Utah,POINT (-112.7158330002927 38.43944400034042)
273,Sheeprock,Beryllium,Skarn and Greisen-Hosted Be-F,39.937777999655,-112.50861100039731,United States of America,Utah,POINT (-112.5086110003973 39.937777999655)
274,Black Mountains,Beryllium,Non-pegmatite,33.47979010013307,-107.7455958998309,United States of America,New Mexico,POINT (-107.7455958998309 33.47979010013307)
275,Silverton,Beryllium,Non-pegmatite,37.81194100037692,-107.66450570007794,United States of America,Colorado,POINT (-107.6645057000779 37.81194100037692)
276,Iron Mountain,Beryllium,Carbonate-hosted Be,33.469722000070306,-107.63694400016544,United States of America,New Mexico,POINT (-107.6369440001654 33.46972200007031)
277,Apache Warm Springs,Beryllium,Volcanogenic-hosted Be,33.561944000015615,-107.59555599990944,United States of America,New Mexico,POINT (-107.5955559999094 33.56194400001561)
278,Brown Derby,Beryllium,Pegmatite,38.54166700013201,-106.62555600040906,United States of America,Colorado,POINT (-106.6255560004091 38.54166700013201)
279,Mount Antero,Beryllium,Non-pegmatite,38.67388900017727,-106.24694400006553,United States of America,Colorado,POINT (-106.2469440000655 38.67388900017727)
280,Harding,Beryllium; Lithium,Pegmatite,36.192647714620364,-105.79482193728256,United States of America,New Mexico,POINT (-105.7948219372826 36.19264771462036)
281,Meyers Ranch,Beryllium,Pegmatite,38.793055999834564,-105.59527800007959,United States of America,Colorado,POINT (-105.5952780000796 38.79305599983456)
282,Cornudas Mountain,Beryllium,Non-pegmatite,32.04944400034037,-105.52500000034968,United States of America,New Mexico,POINT (-105.5250000003497 32.04944400034037)
283,Wind Mountain,Beryllium,Pegmatite,32.02527800017964,-105.51527799987974,United States of America,New Mexico,POINT (-105.5152779998797 32.02527800017964)
284,Sierra Blanca,Beryllium,Carbonate-hosted Be,31.28749999962531,-105.45166700003199,United States of America,Texas,POINT (-105.451667000032 31.28749999962531)
285,Boomer mine,Beryllium,Skarn and Greisen-Hosted Be-F,39.07638899955276,-105.44833300006786,United States of America,Colorado,POINT (-105.4483330000679 39.07638899955276)
286,Redskin Granite,Beryllium,Non-pegmatite,39.09916699955744,-105.41777800025449,United States of America,Colorado,POINT (-105.4177780002545 39.09916699955744)
287,Big Bertha,Beryllium,Pegmatite,39.336944000165545,-105.21750000042465,United States of America,Colorado,POINT (-105.2175000004246 39.33694400016554)
288,Twin Cedars,Beryllium,Pegmatite,39.38138900020226,-105.21138900010226,United States of America,Colorado,POINT (-105.2113890001023 39.38138900020226)
289,Pidlite,Beryllium,Pegmatite,35.986700000104975,-104.91910000016486,United States of America,New Mexico,POINT (-104.9191000001649 35.98670000010497)
290,Pikes Peak,Beryllium,Pegmatite,38.81750000022487,-104.91416700020687,United States of America,Colorado,POINT (-104.9141670002069 38.81750000022487)
291,St. Peter's Dome,Beryllium,Pegmatite,38.74749999982521,-104.91111099957294,United States of America,Colorado,POINT (-104.9111109995729 38.74749999982521)
292,Tip Top,Beryllium,Pegmatite,43.71555599970969,-103.66944399964086,United States of America,South Dakota,POINT (-103.6694439996409 43.71555599970969)
293,Roosevelt pegmatite,Beryllium,Pegmatite,43.72750000012496,-103.61249999967521,United States of America,South Dakota,POINT (-103.6124999996752 43.72750000012496)
294,Dan Patch,Beryllium,Pegmatite,43.89444399969091,-103.4416669997322,United States of America,South Dakota,POINT (-103.4416669997322 43.89444399969091)
295,Hugo,Beryllium,Pegmatite,43.87111100017256,-103.42500000004992,United States of America,South Dakota,POINT (-103.4250000000499 43.87111100017256)
296,Peerless,Beryllium,Pegmatite,43.89027800002975,-103.41944400014046,United States of America,South Dakota,POINT (-103.4194440001405 43.89027800002975)
297,Etta,Beryllium,Pegmatite,43.88055599955976,-103.41888899972753,United States of America,South Dakota,POINT (-103.4188889997275 43.88055599955976)
298,Barringer Hill,Beryllium,Pegmatite,30.706199999830176,-98.5553999998101,United States of America,Texas,POINT (-98.55539999981011 30.70619999983018)
299,Llano County,Beryllium,Pegmatite,30.75810000011495,-98.22809999961527,United States of America,Texas,POINT (-98.22809999961527 30.75810000011495)
300,Hurricane Mountain,Beryllium,Pegmatite,35.88583299989307,-82.278889000427,United States of America,North Carolina,POINT (-82.278889000427 35.88583299989307)
301,South Toe River,Beryllium,Pegmatite,35.80527800017961,-82.21305599973454,United States of America,North Carolina,POINT (-82.21305599973454 35.80527800017961)
302,Gaston McDowell,Beryllium,Pegmatite,35.83555599980957,-82.17361100004757,United States of America,North Carolina,POINT (-82.17361100004757 35.83555599980957)
303,McKinney,Beryllium,Pegmatite,35.91666699998211,-82.0666670001819,United States of America,North Carolina,POINT (-82.06666700018189 35.91666699998211)
304,Wiseman,Beryllium,Pegmatite,35.91666699998211,-82.0666670001819,United States of America,North Carolina,POINT (-82.06666700018189 35.91666699998211)
305,Brush Creek Mountain,Beryllium,Pegmatite,35.882221999745525,-82.0569439996658,United States of America,North Carolina,POINT (-82.0569439996658 35.88222199974552)
306,Plumtree,Beryllium,Pegmatite,36.059721999570684,-82.01083300014278,United States of America,North Carolina,POINT (-82.01083300014278 36.05972199957068)
307,Bessemer City,Beryllium,Pegmatite,35.337942000223165,-81.31010600039156,United States of America,North Carolina,POINT (-81.31010600039156 35.33794200022317)
308,Hiddenite,Beryllium,Non-pegmatite,35.900000000299826,-81.08333300001789,United States of America,North Carolina,POINT (-81.08333300001789 35.90000000029983)
309,Franklin,Beryllium; Gallium,Pegmatite; Ga in Clastic-dominated Pb-Zn,41.115668750212706,-74.58743757098705,United States of America,New Jersey,POINT (-74.58743757098705 41.11566875021271)
310,Ridgefield,Beryllium,Pegmatite,41.29305600023429,-73.51638899995237,United States of America,Connecticut,POINT (-73.51638899995237 41.29305600023429)
311,Brookfield,Beryllium,Pegmatite,41.482499999575396,-73.40944400004054,United States of America,Connecticut,POINT (-73.40944400004054 41.4824999995754)
312,Danbury line,Beryllium,Pegmatite,41.45111099997274,-73.39500000034968,United States of America,Connecticut,POINT (-73.39500000034968 41.45111099997274)
313,Biermann,Beryllium,Pegmatite,41.35416699990719,-73.35055600035906,United States of America,Connecticut,POINT (-73.35055600035906 41.35416699990719)
314,East Village pegmatite,Beryllium,Pegmatite,41.36583300009295,-73.1847219998204,United States of America,Connecticut,POINT (-73.1847219998204 41.36583300009295)
315,Smith-Bullock,Beryllium,Pegmatite,43.611499999925115,-71.7929000002348,United States of America,New Hampshire,POINT (-71.79290000023479 43.61149999992512)
316,Crooker pegmatite,Beryllium,Pegmatite,44.54416700000712,-70.72361100044725,United States of America,Maine,POINT (-70.72361100044725 44.54416700000712)
317,Dunton Gem Quarry,Beryllium,Pegmatite,44.54277799980491,-70.72305600003432,United States of America,Maine,POINT (-70.72305600003432 44.54277799980491)
318,Newry,Beryllium,Pegmatite,44.54444400019054,-70.7211110002724,United States of America,Maine,POINT (-70.7211110002724 44.54444400019054)
319,Rockport,Beryllium,Pegmatite,42.65560000043973,-70.62079999962026,United States of America,Massachusetts,POINT (-70.62079999962026 42.65560000043973)
320,Mount Mica,Beryllium; Lithium,Pegmatite,44.26919653609133,-70.47330822259636,United States of America,Maine,POINT (-70.47330822259636 44.26919653609133)
321,Peg Claims,Beryllium,Pegmatite,44.120300000045006,-69.24000000019981,United States of America,Maine,POINT (-69.24000000019981 44.12030000004501)
322,Kafubu,Beryllium,Non-pegmatite,-12.828056000084302,28.193332999618292,Zambia,,POINT (28.19333299961829 -12.8280560000843)
323,Filabusi,Beryllium,Non-pegmatite,-20.53980999973163,29.282809999581843,Zimbabwe,,POINT (29.28280999958184 -20.53980999973163)
324,Mweza,Beryllium,Non-pegmatite,-20.916668000128084,29.93333199987194,Zimbabwe,,POINT (29.93333199987194 -20.91666800012808)
325,Fort Victoria,Beryllium,Non-pegmatite,-20.074439999606227,30.832779999597335,Zimbabwe,,POINT (30.83277999959734 -20.07443999960623)
326,Harare,Beryllium,Pegmatite,-17.863889000377014,31.02972200027017,Zimbabwe,,POINT (31.02972200027017 -17.86388900037701)
327,Kambalda,Cobalt,Magmatic Ni-Cu(-Co-PGE) sulfide,-31.635999999700175,121.64899999955037,Australia,,POINT (121.6489999995504 -31.63599999970018)
328,Mount Keith,Cobalt,Magmatic Ni-Cu(-Co-PGE) sulfide,-27.71299999995,120.53300000044976,Australia,,POINT (120.5330000004498 -27.71299999995)
329,Savannah,Cobalt,Magmatic Ni-Cu(-Co-PGE) sulfide,-17.353000000149848,128.0219999998002,Australia,,POINT (128.0219999998002 -17.35300000014985)
330,Americano do Brasil,Cobalt,Magmatic Ni-Cu(-Co-PGE) sulfide,-16.102999999949986,-50.07499999965023,Brazil,,POINT (-50.07499999965023 -16.10299999994999)
331,Fortaleza de Minas,Cobalt,Magmatic Ni-Cu(-Co-PGE) sulfide,-20.997000000349715,-48.49899999985007,Brazil,,POINT (-48.49899999985007 -20.99700000034971)
332,Santa Rita,Cobalt,Magmatic Ni-Cu(-Co-PGE) sulfide,-14.185000000149842,-39.72499999965021,Brazil,,POINT (-39.72499999965021 -14.18500000014984)
333,Dumont,Cobalt,Magmatic Ni-Cu(-Co-PGE) sulfide,48.64899999975023,-78.44200000029974,Canada,,POINT (-78.44200000029974 48.64899999975023)
334,Ferguson Lake,Cobalt,Magmatic Ni-Cu(-Co-PGE) sulfide,62.917000000049995,-96.96700000014982,Canada,,POINT (-96.96700000014982 62.91700000005)
335,Makwa,Cobalt,Magmatic Ni-Cu(-Co-PGE) sulfide,50.466999999750215,-95.4330000000499,Canada,,POINT (-95.4330000000499 50.46699999975021)
336,Nunavik,Cobalt,Magmatic Ni-Cu(-Co-PGE) sulfide,61.57400000000007,-73.25999999990006,Canada,,POINT (-73.25999999990006 61.57400000000007)
337,Raglan,Cobalt,Magmatic Ni-Cu(-Co-PGE) sulfide,61.593000000249845,-74.29100000024977,Canada,,POINT (-74.29100000024977 61.59300000024984)
338,Shakespeare,Cobalt; Platinum-Group Elements,Magmatic Ni-Cu(-Co-PGE) sulfide; Conduit,46.35000000009995,-81.8330000002498,Canada,,POINT (-81.8330000002498 46.35000000009995)
339,Sudbury Complex,Cobalt; Platinum-Group Elements,Magmatic Ni-Cu(-Co-PGE) sulfide; Sudbury,46.63299999975027,-81.38300000024975,Canada,,POINT (-81.38300000024975 46.63299999975027)
340,Thompson,Cobalt,Magmatic Ni-Cu(-Co-PGE) sulfide,53.760999999750254,-98.81400000019983,Canada,,POINT (-98.81400000019983 53.76099999975025)
341,Turnagain,Cobalt,Magmatic Ni-Cu(-Co-PGE) sulfide,58.47600000039978,-128.82800000039964,Canada,,POINT (-128.8280000003996 58.47600000039978)
342,Voisey's Bay,Cobalt,Magmatic Ni-Cu(-Co-PGE) sulfide,45.498999999750254,-73.56999999999994,Canada,,POINT (-73.56999999999994 45.49899999975025)
343,Wellgreen,Cobalt,Magmatic Ni-Cu(-Co-PGE) sulfide,60.75000000009999,-139.50200000039968,Canada,,POINT (-139.5020000003997 60.75000000009999)
344,Jinchuan,Cobalt; Platinum-Group Elements,Magmatic Ni-Cu(-Co-PGE) sulfide; Conduit,38.4670000003498,102.16699999985019,China,,POINT (102.1669999998502 38.4670000003498)
345,Yangliuping,Cobalt; Platinum-Group Elements,Magmatic Ni-Cu(-Co-PGE) sulfide; Conduit,30.66699999975026,102.00000000039978,China,,POINT (102.0000000003998 30.66699999975026)
346,Hitura,Cobalt; Platinum-Group Elements,Magmatic Ni-Cu(-Co-PGE) sulfide; Synorogenic,63.84200000000004,25.050999999750218,Finland,,POINT (25.05099999975022 63.84200000000004)
347,Kevitsa,Cobalt; Platinum-Group Elements,Magmatic Ni-Cu(-Co-PGE) sulfide; Atypical; pipe-like ore bodies,67.69999999970025,29.967000000249868,Finland,,POINT (29.96700000024987 67.69999999970025)
348,Kotalahti,Cobalt,Magmatic Ni-Cu(-Co-PGE) sulfide,62.52200000029984,27.681000000249867,Finland,,POINT (27.68100000024987 62.52200000029984)
349,Laukunkangas,Cobalt,Magmatic Ni-Cu(-Co-PGE) sulfide,62.04499999985018,28.769999999800177,Finland,,POINT (28.76999999980018 62.04499999985018)
350,Stormi,Cobalt,Magmatic Ni-Cu(-Co-PGE) sulfide,61.33199999980019,24.90299999965032,Finland,,POINT (24.90299999965032 61.33199999980019)
351,Bruvann,Cobalt,Magmatic Ni-Cu(-Co-PGE) sulfide,68.33200000019991,16.943999999800212,Norway,,POINT (16.94399999980021 68.33200000019991)
352,Stormyra,Cobalt,Magmatic Ni-Cu(-Co-PGE) sulfide,61.34400000009998,9.657999999900142,Norway,,POINT (9.657999999900142 61.34400000009998)
353,Ertelien,Cobalt,Magmatic Ni-Cu(-Co-PGE) sulfide,60.07000000019991,10.045999999700257,Norway,,POINT (10.04599999970026 60.07000000019991)
354,Flåt,Cobalt,Magmatic Ni-Cu(-Co-PGE) sulfide,58.598000000299805,7.870999999550406,Norway,,POINT (7.870999999550406 58.59800000029981)
355,NKT,Cobalt,Magmatic Ni-Cu(-Co-PGE) sulfide,67.94000000029985,32.81999999980019,Russia,,POINT (32.81999999980019 67.94000000029985)
356,Pechenga,Cobalt,Magmatic Ni-Cu(-Co-PGE) sulfide,69.33200000000005,29.73700000034978,Russia,,POINT (29.73700000034978 69.33200000000005)
357,Sopchuaivench,Cobalt,Magmatic Ni-Cu(-Co-PGE) sulfide,67.87999999970026,32.81999999980019,Russia,,POINT (32.81999999980019 67.87999999970026)
358,Nkomati,Cobalt,Magmatic Ni-Cu(-Co-PGE) sulfide,-25.666999999650216,30.50000000029985,South Africa,,POINT (30.50000000029985 -25.66699999965022)
359,Aguablanca,Cobalt; Platinum-Group Elements,Magmatic Ni-Cu(-Co-PGE) sulfide; Synorogenic,37.85000000000008,-6.183000000349693,Spain,,POINT (-6.183000000349693 37.85000000000008)
360,Kabanga,Cobalt; Platinum-Group Elements,Magmatic Ni-Cu(-Co-PGE) sulfide; Conduit,-2.8670000002497886,30.583000000349784,Tanzania,,POINT (30.58300000034978 -2.867000000249789)
361,Eagle,Cobalt,Magmatic Ni-Cu(-Co-PGE) sulfide,46.747999999700255,-87.89500000014988,United States of America,Michigan,POINT (-87.89500000014988 46.74799999970026)
362,Mesaba,Cobalt,Magmatic Ni-Cu(-Co-PGE) sulfide,47.63200000019992,-91.88299999995002,United States of America,Minnesota,POINT (-91.88299999995002 47.63200000019992)
363,Northmet,Cobalt,Magmatic Ni-Cu(-Co-PGE) sulfide,47.600000000299815,-91.96700000024975,United States of America,Minnesota,POINT (-91.96700000024975 47.60000000029981)
364,Twin Metals,Cobalt,Magmatic Ni-Cu(-Co-PGE) sulfide,47.80100000014994,-91.75599999970018,United States of America,Minnesota,POINT (-91.75599999970018 47.80100000014994)
365,Munali,Cobalt,Magmatic Ni-Cu(-Co-PGE) sulfide,-15.997000000449589,28.00100000014993,Zambia,,POINT (28.00100000014993 -15.99700000044959)
366,Browns,Cobalt,Stratiform sediment-hosted Cu-Co,-13.067999999900053,131.07899999995016,Australia,,POINT (131.0789999999502 -13.06799999990005)
367,Emmie Bluff,Cobalt,Stratiform sediment-hosted Cu-Co,-31.099999999800104,137.16700000005005,Australia,,POINT (137.1670000000501 -31.0999999998001)
368,Mount Gunson,Cobalt,Stratiform sediment-hosted Cu-Co,-31.449999999999932,137.25000000010004,Australia,,POINT (137.2500000001 -31.44999999999993)
369,Pyrite Hill-Big Hill,Cobalt,Stratiform sediment-hosted Cu-Co,-32.11700000024979,141.20000000029984,Australia,,POINT (141.2000000002998 -32.11700000024979)
370,Windabout,Cobalt,Stratiform sediment-hosted Cu-Co,-31.300000000299747,137.1600000001,Australia,,POINT (137.1600000001 -31.30000000029975)
371,Tangdan,Cobalt,Stratiform sediment-hosted Cu-Co,26.11699999985018,103.16699999965033,China,,POINT (103.1669999996503 26.11699999985018)
372,Deziwa,Cobalt,Stratiform sediment-hosted Cu-Co,-10.774999999950012,25.7679999999001,Democratic Republic of the Congo,Kinshasa,POINT (25.7679999999001 -10.77499999995001)
373,Dilala East,Cobalt,Stratiform sediment-hosted Cu-Co,-10.700000000099863,25.467000000249868,Democratic Republic of the Congo,Kinshasa,POINT (25.46700000024987 -10.70000000009986)
374,DIMA,Cobalt,Stratiform sediment-hosted Cu-Co,-10.741000000449617,25.37499999975023,Democratic Republic of the Congo,Kinshasa,POINT (25.37499999975023 -10.74100000044962)
375,Disele,Cobalt,Stratiform sediment-hosted Cu-Co,-10.754000000099893,26.253999999900145,Democratic Republic of the Congo,Kinshasa,POINT (26.25399999990015 -10.75400000009989)
376,Écaille C,Cobalt,Stratiform sediment-hosted Cu-Co,-10.75999999980013,26.115000000249836,Democratic Republic of the Congo,Kinshasa,POINT (26.11500000024984 -10.75999999980013)
377,Etoile,Cobalt,Stratiform sediment-hosted Cu-Co,-11.633999999600235,27.580999999550386,Democratic Republic of the Congo,Kinshasa,POINT (27.58099999955039 -11.63399999960023)
378,Kababankola,Cobalt,Stratiform sediment-hosted Cu-Co,-10.733000000249774,26.422999999850163,Democratic Republic of the Congo,Kinshasa,POINT (26.42299999985016 -10.73300000024977)
379,Kabolela,Cobalt,Stratiform sediment-hosted Cu-Co,-10.690000000299733,26.450000000299838,Democratic Republic of the Congo,Kinshasa,POINT (26.45000000029984 -10.69000000029973)
380,Kakanda,Cobalt,Stratiform sediment-hosted Cu-Co,-10.73899999995001,26.39799999990015,Democratic Republic of the Congo,Kinshasa,POINT (26.39799999990015 -10.73899999995001)
381,Kalukundi-Kii,Cobalt,Stratiform sediment-hosted Cu-Co,-10.623999999999967,25.909000000050014,Democratic Republic of the Congo,Kinshasa,POINT (25.90900000005001 -10.62399999999997)
382,Kambove,Cobalt,Stratiform sediment-hosted Cu-Co,-10.851000000049908,26.611000000050012,Democratic Republic of the Congo,Kinshasa,POINT (26.61100000005001 -10.85100000004991)
383,Kamfundwa,Cobalt,Stratiform sediment-hosted Cu-Co,-10.81300000044962,26.5860000001,Democratic Republic of the Congo,Kinshasa,POINT (26.5860000001 -10.81300000044962)
384,Kamoto-KOV-Musonie-Mupine,Cobalt,Stratiform sediment-hosted Cu-Co,-10.719999999700178,25.400999999950102,Democratic Republic of the Congo,Kinshasa,POINT (25.4009999999501 -10.71999999970018)
385,Kananga,Cobalt,Stratiform sediment-hosted Cu-Co,-10.676999999750137,25.477000000049998,Democratic Republic of the Congo,Kinshasa,POINT (25.47700000005 -10.67699999975014)
386,Kazibizi,Cobalt,Stratiform sediment-hosted Cu-Co,-10.833000000049935,26.566999999850168,Democratic Republic of the Congo,Kinshasa,POINT (26.56699999985017 -10.83300000004994)
387,Kipapila,Cobalt,Stratiform sediment-hosted Cu-Co,-12.01599999970017,27.901000000349768,Democratic Republic of the Congo,Kinshasa,POINT (27.90100000034977 -12.01599999970017)
388,Kipoi Central,Cobalt,Stratiform sediment-hosted Cu-Co,-11.255999999600249,27.09899999965029,Democratic Republic of the Congo,Kinshasa,POINT (27.09899999965029 -11.25599999960025)
389,Kipoi North,Cobalt,Stratiform sediment-hosted Cu-Co,-11.255999999600249,27.09899999965029,Democratic Republic of the Congo,Kinshasa,POINT (27.09899999965029 -11.25599999960025)
390,Kisanfu,Cobalt,Stratiform sediment-hosted Cu-Co,-10.773999999700152,25.97500000034978,Democratic Republic of the Congo,Kinshasa,POINT (25.97500000034978 -10.77399999970015)
391,Luishia,Cobalt,Stratiform sediment-hosted Cu-Co,-11.166999999850077,27.00800000029983,Democratic Republic of the Congo,Kinshasa,POINT (27.00800000029983 -11.16699999985008)
392,Luiswishi,Cobalt,Stratiform sediment-hosted Cu-Co,-11.514000000199815,27.416999999950065,Democratic Republic of the Congo,Kinshasa,POINT (27.41699999995006 -11.51400000019981)
393,Lupoto,Cobalt,Stratiform sediment-hosted Cu-Co,-11.598999999850093,27.26300000014993,Democratic Republic of the Congo,Kinshasa,POINT (27.26300000014993 -11.59899999985009)
394,M'Sesa,Cobalt,Stratiform sediment-hosted Cu-Co,-10.849999999800104,26.583000000249854,Democratic Republic of the Congo,Kinshasa,POINT (26.58300000024985 -10.8499999998001)
395,Mukondo,Cobalt,Stratiform sediment-hosted Cu-Co,-10.725000000049931,26.34800000000007,Democratic Republic of the Congo,Kinshasa,POINT (26.34800000000007 -10.72500000004993)
396,Mutanda,Cobalt,Stratiform sediment-hosted Cu-Co,-10.785999999999945,25.813000000349803,Democratic Republic of the Congo,Kinshasa,POINT (25.8130000003498 -10.78599999999994)
397,Mutoshi,Cobalt,Stratiform sediment-hosted Cu-Co,-10.650000000199782,25.504999999850156,Democratic Republic of the Congo,Kinshasa,POINT (25.50499999985016 -10.65000000019978)
398,Tenke Fungurume,Cobalt,Stratiform sediment-hosted Cu-Co,-10.579999999800123,26.190000000099985,Democratic Republic of the Congo,Kinshasa,POINT (26.19000000009999 -10.57999999980012)
399,Tilwezembe,Cobalt,Stratiform sediment-hosted Cu-Co,-10.799999999900024,25.691999999800203,Democratic Republic of the Congo,Kinshasa,POINT (25.6919999998002 -10.79999999990002)
400,Boleo,Cobalt,Stratiform sediment-hosted Cu-Co,27.332999999650326,-112.30000000029975,Mexico,,POINT (-112.3000000002997 27.33299999965033)
401,Kilembe,Cobalt,Stratiform sediment-hosted Cu-Co,0.21700000034979894,30.050000000299804,Uganda,,POINT (30.0500000002998 0.2170000003497989)
402,Sheep Creek,Cobalt,Stratiform sediment-hosted Cu-Co,46.72500000024985,-110.89500000004995,United States of America,Montana,POINT (-110.8950000000499 46.72500000024985)
403,Baluba-Muliashi-Luanshya,Cobalt,Stratiform sediment-hosted Cu-Co,-13.499999999900012,28.377999999900112,Zambia,,POINT (28.37799999990011 -13.49999999990001)
404,Chambishi Southeast,Cobalt,Stratiform sediment-hosted Cu-Co,-12.659999999600245,28.04800000019992,Zambia,,POINT (28.04800000019992 -12.65999999960025)
405,Chibuluma-Chibuluma West,Cobalt,Stratiform sediment-hosted Cu-Co,-12.915000000349664,28.08199999970026,Zambia,,POINT (28.08199999970026 -12.91500000034966)
406,Chimiwungo,Cobalt,Stratiform sediment-hosted Cu-Co,-12.178999999950008,25.85099999995009,Zambia,,POINT (25.85099999995009 -12.17899999995001)
407,Chingola-Nchanga,Cobalt,Stratiform sediment-hosted Cu-Co,-12.507000000049914,27.86699999995011,Zambia,,POINT (27.86699999995011 -12.50700000004991)
408,Kalumbila,Cobalt,Stratiform sediment-hosted Cu-Co,-12.209999999600257,25.345000000349785,Zambia,,POINT (25.34500000034978 -12.20999999960026)
409,Malundwe,Cobalt,Stratiform sediment-hosted Cu-Co,-12.162000000199782,25.754000000000076,Zambia,,POINT (25.75400000000008 -12.16200000019978)
410,Mindola-Nkana N-S,Cobalt,Stratiform sediment-hosted Cu-Co,-12.796000000299728,28.18200000039974,Zambia,,POINT (28.18200000039974 -12.79600000029973)
411,Nama,Cobalt,Stratiform sediment-hosted Cu-Co,-12.25699999965019,27.620999999650337,Zambia,,POINT (27.62099999965034 -12.25699999965019)
412,Talvivaara,Cobalt; Gallium,Black-Shale-Hosted Ni-Cu-Zn-Co; Ga in Clastic-dominated Pb-Zn,63.98300000014996,28.167000000249857,Finland,,POINT (28.16700000024986 63.98300000014996)
413,Basil,Cobalt,Iron oxide-Cu-Au(Ag-U-REE-Co-Ni),-22.066999999650193,135.54999999990014,Australia,,POINT (135.5499999999001 -22.06699999965019)
414,Ernest Henry,Cobalt,Iron oxide-Cu-Au(Ag-U-REE-Co-Ni),-20.432999999750166,140.70000000039977,Australia,,POINT (140.7000000003998 -20.43299999975017)
415,Greenmount,Cobalt,Iron oxide-Cu-Au(Ag-U-REE-Co-Ni),-21.033000000349716,140.53300000005004,Australia,,POINT (140.53300000005 -21.03300000034972)
416,Mount Oxide,Cobalt,Iron oxide-Cu-Au(Ag-U-REE-Co-Ni),-19.48299999985005,139.46699999995008,Australia,,POINT (139.4669999999501 -19.48299999985005)
417,Rover 1,Cobalt,Iron oxide-Cu-Au(Ag-U-REE-Co-Ni),-20.001999999999953,133.6580000002998,Australia,,POINT (133.6580000002998 -20.00199999999995)
418,Lala,Cobalt,Iron oxide-Cu-Au(Ag-U-REE-Co-Ni),26.100000000099953,101.8999999997003,China,,POINT (101.8999999997003 26.10000000009995)
419,Guelb Moghrein,Cobalt,Iron oxide-Cu-Au(Ag-U-REE-Co-Ni),19.75000000019992,-14.38300000014982,Mauritania,,POINT (-14.38300000014982 19.75000000019992)
420,NICO,Cobalt,Metasedimentary-rock-hosted Co-Cu-Au,63.54800000029985,-116.75099999975015,Canada,,POINT (-116.7509999997501 63.54800000029985)
421,Werner Lake,Cobalt,Metasedimentary-rock-hosted Co-Cu-Au,50.46900000024988,-94.97099999975018,Canada,,POINT (-94.97099999975018 50.46900000024988)
422,Haarakumpu,Cobalt,Metasedimentary-rock-hosted Co-Cu-Au,66.4240000001999,28.574000000299804,Finland,,POINT (28.5740000002998 66.4240000001999)
423,Juomasuo,Cobalt,Metasedimentary-rock-hosted Co-Cu-Au,66.28899999975022,29.200000000199907,Finland,,POINT (29.20000000019991 66.28899999975022)
424,Kouvervaara,Cobalt,Metasedimentary-rock-hosted Co-Cu-Au,66.13099999985019,28.819000000349774,Finland,,POINT (28.81900000034977 66.13099999985019)
425,Vähäjoki,Cobalt,Metasedimentary-rock-hosted Co-Cu-Au,66.11199999960036,25.27900000005002,Finland,,POINT (25.27900000005002 66.11199999960036)
426,Skuterud,Cobalt,Metasedimentary-rock-hosted Co-Cu-Au,59.91299999965031,9.887999999800172,Norway,,POINT (9.887999999800172 59.91299999965031)
427,Blackbird,Cobalt,Metasedimentary-rock-hosted Co-Cu-Au,45.123000000249874,-114.3489999995503,United States of America,Idaho,POINT (-114.3489999995503 45.12300000024987)
428,Chu Chu,Cobalt,Volcanogenic Cu(-Zn-Co-Ag-Au) massive sulfide,51.38099999965033,-120.06200000039968,Canada,,POINT (-120.0620000003997 51.38099999965033)
429,Soucy No. 1,Cobalt,Volcanogenic Cu(-Zn-Co-Ag-Au) massive sulfide,58.32000000009998,-69.87000000019981,Canada,,POINT (-69.87000000019981 58.32000000009998)
430,Windy Craggy,Cobalt,Volcanogenic Cu(-Zn-Co-Ag-Au) massive sulfide,59.7329999996503,-137.7330000000499,Canada,,POINT (-137.7330000000499 59.7329999996503)
431,Deerni,Cobalt,Volcanogenic Cu(-Zn-Co-Ag-Au) massive sulfide,34.395000000249865,100.13100000024986,China,,POINT (100.1310000002499 34.39500000024987)
432,Dur'ngoi,Cobalt,Volcanogenic Cu(-Zn-Co-Ag-Au) massive sulfide,34.33400000029985,100.23800000000006,China,,POINT (100.2380000000001 34.33400000029985)
433,Luikonlahti,Cobalt,Volcanogenic Cu(-Zn-Co-Ag-Au) massive sulfide,62.92299999975023,28.67199999960036,Finland,,POINT (28.67199999960036 62.92299999975023)
434,Outokumpu,Cobalt,Volcanogenic Cu(-Zn-Co-Ag-Au) massive sulfide,62.730000000100006,29.01000000039977,Finland,,POINT (29.01000000039977 62.73000000010001)
435,Gaiskoye,Cobalt,Volcanogenic Cu(-Zn-Co-Ag-Au) massive sulfide,51.46300000034978,58.487999999800195,Russia,,POINT (58.48799999980019 51.46300000034978)
436,Ishkinino,Cobalt,Volcanogenic Cu(-Zn-Co-Ag-Au) massive sulfide,51.449999999800184,58.282999999850176,Russia,,POINT (58.28299999985018 51.44999999980018)
437,Ivanovskoe,Cobalt,Volcanogenic Cu(-Zn-Co-Ag-Au) massive sulfide,52.44999999960038,57.917000000149926,Russia,,POINT (57.91700000014993 52.44999999960038)
438,Komsomolskoye,Cobalt,Volcanogenic Cu(-Zn-Co-Ag-Au) massive sulfide,51.22999999970028,56.97000000009996,Russia,,POINT (56.97000000009996 51.22999999970028)
439,Letneye,Cobalt,Volcanogenic Cu(-Zn-Co-Ag-Au) massive sulfide,51.060000000399725,59.3699999998002,Russia,,POINT (59.3699999998002 51.06000000039973)
440,Sibaiskoye,Cobalt,Volcanogenic Cu(-Zn-Co-Ag-Au) massive sulfide,52.700000000000045,58.630000000199914,Russia,,POINT (58.63000000019991 52.70000000000005)
441,Kure,Cobalt,Volcanogenic Cu(-Zn-Co-Ag-Au) massive sulfide,41.80800000039977,33.692000000000064,Turkey,,POINT (33.69200000000006 41.80800000039977)
442,Turner Albright,Cobalt; Gallium,Volcanogenic Cu(-Zn-Co-Ag-Au) massive sulfide,41.999999999800195,-123.75699999985005,United States of America,Oregon,POINT (-123.7569999998501 41.9999999998002)
443,Goroblagodat,Cobalt,Co in Fe-Cu-Co skarn,61.41700000034979,60.499999999700265,Russia,,POINT (60.49999999970026 61.41700000034979)
444,Magnitogorsk,Cobalt; Gallium,Co in Fe-Cu-Co skarn; Ga in Kuroko Massive Sulfide,53.417000000149926,59.09999999980022,Russia,,POINT (59.09999999980022 53.41700000014993)
445,Cornwall,Cobalt,Co in Fe-Cu-Co skarn,40.26700000034981,-76.40000000009991,United States of America,Pennsylvania,POINT (-76.40000000009991 40.26700000034981)
446,Cobalt-Gowganda,Cobalt,Polymetallic (Ag-Ni-Co-As-Bi),47.39599999970028,-79.68599999990005,Canada,,POINT (-79.68599999990005 47.39599999970028)
447,Bou Azzer,Cobalt,Polymetallic (Ag-Ni-Co-As-Bi),30.529999999700294,-6.9100000002997035,Morocco,,POINT (-6.910000000299704 30.52999999970029)
448,Karakul,Cobalt,Polymetallic (Ag-Ni-Co-As-Bi),49.91000000000008,89.5500000001,Russia,,POINT (89.5500000001 49.91000000000008)
449,Bell Creek-Neck-Minnamoolka,Cobalt,Ni-Co laterite,-18.13699999994998,144.78900000024987,Australia,,POINT (144.7890000002499 -18.13699999994998)
450,Cawse,Cobalt,Ni-Co laterite,-30.3777777777222,121.15388888876123,Australia,,POINT (121.1538888887612 -30.3777777777222)
451,Claude Hills,Cobalt,Ni-Co laterite,-26.000000000099874,129.2999999998002,Australia,,POINT (129.2999999998002 -26.00000000009987)
452,Greenvale-Kokomo-Lucknow,Cobalt,Ni-Co laterite,-18.970277777497415,144.93472222265257,Australia,,POINT (144.9347222226526 -18.97027777749742)
453,Kalgoorlie Nickel,Cobalt,Ni-Co laterite,-30.099999999999966,121.0500000001,Australia,,POINT (121.0500000001 -30.09999999999997)
454,Marlborough,Cobalt,Ni-Co laterite,-23.008333333716337,149.89166666698316,Australia,,POINT (149.8916666669832 -23.00833333371634)
455,Murrin Murrin,Cobalt,Ni-Co laterite,-28.767777777522383,121.89111111098907,Australia,,POINT (121.8911111109891 -28.76777777752238)
456,Ora Banda,Cobalt,Ni-Co laterite,-30.23972222180305,120.99555555514485,Australia,,POINT (120.9955555551448 -30.23972222180305)
457,Ravensthorpe,Cobalt,Ni-Co laterite,-33.64638888933575,120.39472222205302,Australia,,POINT (120.394722222053 -33.64638888933575)
458,Summervale/Westlynn,Cobalt,Ni-Co laterite,-31.5459999997002,147.16500000024985,Australia,,POINT (147.1650000002498 -31.5459999997002)
459,Weld Range,Cobalt,Ni-Co laterite,-26.819999999900006,117.75000000039972,Australia,,POINT (117.7500000003997 -26.81999999990001)
460,Wingellina,Cobalt,Ni-Co laterite,-26.064444444855212,128.96916666670836,Australia,,POINT (128.9691666667084 -26.06444444485521)
461,Yerilla,Cobalt,Ni-Co laterite,-29.726000000099873,122.03600000000006,Australia,,POINT (122.0360000000001 -29.72600000009987)
462,Young,Cobalt,Ni-Co laterite,-35.767000000149835,148.81700000014996,Australia,,POINT (148.81700000015 -35.76700000014984)
463,Jacaré,Cobalt,Ni-Co laterite,-6.213055555369522,-52.86305555566929,Brazil,,POINT (-52.86305555566929 -6.213055555369522)
464,Niquelandia,Cobalt,Ni-Co laterite,-14.353333333566468,-48.39583333334161,Brazil,,POINT (-48.39583333334161 -14.35333333356647)
465,Santa Fe,Cobalt,Ni-Co laterite,-15.668888889110917,-51.11999999990002,Brazil,,POINT (-51.11999999990002 -15.66888888911092)
466,Serra do Tapa,Cobalt,Ni-Co laterite,-6.846111110839047,-49.32500000024976,Brazil,,POINT (-49.32500000024976 -6.846111110839047)
467,Vale dos Sonhos,Cobalt,Ni-Co laterite,-6.968888888511344,-49.25944444400585,Brazil,,POINT (-49.25944444400585 -6.968888888511344)
468,Vermelho,Cobalt,Ni-Co laterite,-6.236388888536339,-49.75027777749739,Brazil,,POINT (-49.75027777749739 -6.236388888536339)
469,Vila Oito,Cobalt,Ni-Co laterite,-7.787499999625254,-49.35111111078908,Brazil,,POINT (-49.35111111078908 -7.787499999625254)
470,Musongati,Cobalt,Ni-Co laterite,-3.787222222327671,30.18777777812204,Burundi,,POINT (30.18777777812204 -3.787222222327671)
471,Nyabikere,Cobalt,Ni-Co laterite,-3.276388889235818,30.090000000399755,Burundi,,POINT (30.09000000039975 -3.276388889235818)
472,Waga,Cobalt,Ni-Co laterite,-3.5619444446803072,29.910833332892025,Burundi,,POINT (29.91083333289203 -3.561944444680307)
473,Nkamouna,Cobalt,Ni-Co laterite,3.2663888887362873,13.813055555669393,Cameroon,,POINT (13.81305555566939 3.266388888736287)
474,Moa,Cobalt,Ni-Co laterite,20.602499999575343,-74.95499999975016,Cuba,,POINT (-74.95499999975016 20.60249999957534)
475,Nicaro,Cobalt,Ni-Co laterite,20.626111110839133,-75.54277777757233,Cuba,,POINT (-75.54277777757233 20.62611111083913)
476,Pinares de Mayari,Cobalt,Ni-Co laterite,20.53916666630863,-75.71861111151355,Cuba,,POINT (-75.71861111151355 20.53916666630863)
477,Punta Gorda,Cobalt,Ni-Co laterite,20.62583333364148,-74.89222222177807,Cuba,,POINT (-74.89222222177807 20.62583333364148)
478,Sechol,Cobalt,Ni-Co laterite,15.433055555669398,-89.66444444455544,Guatemala,,POINT (-89.66444444455544 15.4330555556694)
479,Bhimatangar,Cobalt,Ni-Co laterite,21.01333333376641,85.73944444450558,India,,POINT (85.73944444450558 21.01333333376641)
480,Kansa,Cobalt,Ni-Co laterite,21.05861111141371,85.85638888933585,India,,POINT (85.85638888933585 21.05861111141371)
481,Saruabil,Cobalt,Ni-Co laterite,21.054722222552584,85.81694444453052,India,,POINT (85.81694444453052 21.05472222255258)
482,Gag Island,Cobalt,Ni-Co laterite,-0.4522222219779337,129.88222222197805,Indonesia,,POINT (129.8822222219781 -0.4522222219779337)
483,Halmahera/Weda Bay,Cobalt,Ni-Co laterite,-0.494722222252733,127.94222222207793,Indonesia,,POINT (127.9422222220779 -0.494722222252733)
484,La Sampala,Cobalt,Ni-Co laterite,-2.7038888887611847,121.92777777752246,Indonesia,,POINT (121.9277777775225 -2.703888888761185)
485,Tiuba-Biankouma,Cobalt,Ni-Co laterite,7.7438888889611235,-7.615555555444473,Côte d’Ivoire,,POINT (-7.615555555444473 7.743888888961123)
486,Gornostai,Cobalt,Ni-Co laterite,50.61222222247761,78.7552777776474,Kazakhstan,,POINT (78.75527777764739 50.61222222247761)
487,Kempirsai,Cobalt,Ni-Co laterite,50.33666666683325,58.28027777809706,Kazakhstan,,POINT (58.28027777809706 50.33666666683325)
488,Cikatova,Cobalt,Ni-Co laterite,42.22361111066425,21.255833333641476,Kosovo,Serbia,POINT (21.25583333364148 42.22361111066425)
489,Glavica,Cobalt,Ni-Co laterite,42.54361111146369,21.009722222102937,Kosovo,Serbia,POINT (21.00972222210294 42.54361111146369)
490,Ržanovo,Cobalt,Ni-Co laterite,41.17055555549456,21.987777777422536,Macedonia,,POINT (21.98777777742254 41.17055555549456)
491,Ambatovy,Cobalt,Ni-Co laterite,-18.86777777752235,48.35305555516976,Madagascar,,POINT (48.35305555516976 -18.86777777752235)
492,Analamay,Cobalt,Ni-Co laterite,-18.845555555844157,48.37083333359152,Madagascar,,POINT (48.37083333359152 -18.84555555584416)
493,Tavai,Cobalt,Ni-Co laterite,5.5840000001999215,117.33299999965027,Malaysia,,POINT (117.3329999996503 5.584000000199921)
494,Goro,Cobalt,Ni-Co laterite,-22.30472222255247,166.9322222225776,New Caledonia,,POINT (166.9322222225776 -22.30472222255247)
495,Kouaoua,Cobalt,Ni-Co laterite,-21.415277777647248,165.73861111131384,New Caledonia,,POINT (165.7386111113138 -21.41527777764725)
496,Nakety,Cobalt,Ni-Co laterite,-21.513888888761187,166.05222222217787,New Caledonia,,POINT (166.0522222221779 -21.51388888876119)
497,Nepoui,Cobalt,Ni-Co laterite,-21.221666667082957,165.04166666638366,New Caledonia,,POINT (165.0416666663837 -21.22166666708296)
498,Thio,Cobalt,Ni-Co laterite,-21.61527777814689,166.18194444418077,New Caledonia,,POINT (166.1819444441808 -21.61527777814689)
499,Tiébaghi,Cobalt,Ni-Co laterite,-20.44472222195293,164.21722222242772,New Caledonia,,POINT (164.2172222224277 -20.44472222195293)
500,Mambare,Cobalt,Ni-Co laterite,-8.999999999900012,147.69999999990011,Papua New Guinea,,POINT (147.6999999999001 -8.999999999900012)
501,Ramu,Cobalt,Ni-Co laterite,-5.525555555844164,145.18750000042473,Papua New Guinea,,POINT (145.1875000004247 -5.525555555844164)
502,Wowo Gap,Cobalt,Ni-Co laterite,-9.682777778071966,148.9605555551948,Papua New Guinea,,POINT (148.9605555551948 -9.682777778071966)
503,Acoje/Zambales,Cobalt,Ni-Co laterite,15.724166666758322,120.0413888891859,Philippines,,POINT (120.0413888891859 15.72416666675832)
504,Agata/Bolobolo/Karihatag,Cobalt,Ni-Co laterite,9.284166666858255,125.52277777807205,Philippines,,POINT (125.5227777780721 9.284166666858255)
505,Berong,Cobalt,Ni-Co laterite,9.391111110989016,118.14333333336674,Philippines,,POINT (118.1433333333667 9.391111110989016)
506,Cagdianao,Cobalt,Ni-Co laterite,9.918055555719377,125.66472222195307,Philippines,,POINT (125.6647222219531 9.918055555719377)
507,Ipilan,Cobalt,Ni-Co laterite,8.967499999625318,117.97499999995011,Philippines,,POINT (117.9749999999501 8.967499999625318)
508,Mindoro,Cobalt,Ni-Co laterite,12.942222222577584,121.06611111083919,Philippines,,POINT (121.0661111108392 12.94222222257758)
509,Nonoc,Cobalt,Ni-Co laterite,9.842777777772255,125.61944444430571,Philippines,,POINT (125.6194444443057 9.842777777772255)
510,Rio Tuba,Cobalt,Ni-Co laterite,8.587000000349803,117.40499999965027,Philippines,,POINT (117.4049999996503 8.587000000349803)
511,Taganaan,Cobalt,Ni-Co laterite,9.775000000349792,125.71699999955035,Philippines,,POINT (125.7169999995504 9.775000000349792)
512,Taganito/Adlay,Cobalt,Ni-Co laterite,9.528888888811196,125.82749999972532,Philippines,,POINT (125.8274999997253 9.528888888811196)
513,Guanajibo,Cobalt,Ni-Co laterite,18.12638888853644,-67.15777777742244,Puerto Rico,,POINT (-67.15777777742244 18.12638888853644)
514,Las Mesas,Cobalt,Ni-Co laterite,18.191944444780347,-67.10055555599405,Puerto Rico,,POINT (-67.10055555599405 18.19194444478035)
515,Akkermanov,Cobalt,Ni-Co laterite,51.206944444630494,58.230000000100006,Russia,,POINT (58.23000000010001 51.20694444463049)
516,Buruktal,Cobalt,Ni-Co laterite,50.84694444463048,60.834444444455585,Russia,,POINT (60.83444444445558 50.84694444463048)
517,Cheremshanskoe,Cobalt,Ni-Co laterite,56.123611110764216,60.296388889335844,Russia,,POINT (60.29638888933584 56.12361111076422)
518,Lipovskoe,Cobalt,Ni-Co laterite,57.43388888876126,61.1100000001,Russia,,POINT (61.1100000001 57.43388888876126)
519,Rogozhinskoe,Cobalt,Ni-Co laterite,56.16916666650849,60.2636111107642,Russia,,POINT (60.2636111107642 56.16916666650849)
520,Serovskoe,Cobalt,Ni-Co laterite,59.713888889061025,60.558888888811225,Russia,,POINT (60.55888888881123 59.71388888906102)
521,Sinarskoe,Cobalt,Ni-Co laterite,56.0686111114137,60.39611111103898,Russia,,POINT (60.39611111103898 56.0686111114137)
522,Rudjinci,Cobalt,Ni-Co laterite,43.58666666683325,20.840277778097004,Serbia,,POINT (20.840277778097 43.58666666683325)
523,Isabela Island,Cobalt,Ni-Co laterite,-8.386944444030803,159.71388888886122,Solomon Islands,,POINT (159.7138888888612 -8.386944444030803)
524,Dutwa,Cobalt,Ni-Co laterite,-3.6649999999499983,33.42099999975022,Tanzania,,POINT (33.42099999975022 -3.664999999949998)
525,Çaldag,Cobalt,Ni-Co laterite,38.616388889135976,27.76916666660844,Turkey,,POINT (27.76916666660844 38.61638888913598)
526,Clarion-Clipperton zone,Cobalt; Manganese,Sea-floor Fe-Mn(-Ni-Cu-Co-Mo) nodules and crusts,9.999999999900126,-139.99999999980014,Pacific Ocean,,POINT (-139.9999999998001 9.999999999900126)
527,Cook Islands EEZ,Cobalt,Sea-floor Fe-Mn(-Ni-Cu-Co-Mo) nodules,-9.999999999700208,-170.0000000000999,Pacific Ocean,,POINT (-170.0000000000999 -9.999999999700208)
528,Pioneer,Cobalt,Sea-floor Fe-Mn(-Ni-Cu-Co-Mo) nodules,-13.999999999800082,73.99999999970026,Indian Ocean,,POINT (73.99999999970026 -13.99999999980008)
529,Prime crust zone,Cobalt,Sea-floor Fe-Mn(-Co-Mo-REE) crusts,14.999999999800195,159.9999999996004,Pacific Ocean,,POINT (159.9999999996004 14.9999999998002)
530,Nameless,Cobalt,Sea-floor Fe-Mn(-Co-Mo-REE) crusts,35.199999999900115,-14.999999999600277,Atlantic Ocean,,POINT (-14.99999999960028 35.19999999990011)
531,Unicorn,Cobalt,Sea-floor Fe-Mn(-Co-Mo-REE) crusts,34.600000000199884,-14.499999999700208,Atlantic Ocean,,POINT (-14.49999999970021 34.60000000019988)
532,MTR,Cobalt,Sea-floor Fe-Mn(-Co-Mo-REE) crusts,36.00000000009999,-14.999999999600277,Atlantic Ocean,,POINT (-14.99999999960028 36.00000000009999)
533,Afanasiy-Nikitin seamount,Cobalt,Sea-floor Fe-Mn(-Co-Mo-REE) crusts,-3.0000000001998046,82.99999999970026,Indian Ocean,,POINT (82.99999999970026 -3.000000000199805)
534,Kimwarer,Fluorite,"Alkaline-volcanic-related epithermal veins, breccia-fills, and carbonate replacements",0.3334000001099753,35.62699999955038,Kenya,,POINT (35.62699999955038 0.3334000001099753)
535,El Hammam,Fluorite,Tin-granite-related,33.55779999957036,-5.80810000031471,Morocco,,POINT (-5.80810000031471 33.55779999957036)
536,Jebel Tirremi,Fluorite,Peralkaline to Alkaline-Intrusion-Related F,34.44270000020492,-2.997000000349715,Morocco,,POINT (-2.997000000349715 34.44270000020492)
537,Canxixe area,Fluorite,Deposit type unclassified,-17.57789999958527,34.310300000045004,Mozambique,,POINT (34.310300000045 -17.57789999958527)
538,Chioco-Djanguire area,Fluorite,Deposit type unclassified,-16.400000000399643,32.583300000294855,Mozambique,,POINT (32.58330000029486 -16.40000000039964)
539,Macossa,Fluorite,Deposit type unclassified,-17.93329999969518,34.200000000099976,Mozambique,,POINT (34.20000000009998 -17.93329999969518)
540,Mount Muambe,Fluorite,Carbonatite-Related F,-16.317000000349708,34.082999999650326,Mozambique,,POINT (34.08299999965033 -16.31700000034971)
541,Okorusu,Fluorite,Carbonatite-Related F,-20.06669999970518,16.766700000204878,Namibia,,POINT (16.76670000020488 -20.06669999970518)
542,Buffalo,Fluorite,Tin-granite-related,-24.481499999825076,28.65840000015993,South Africa,,POINT (28.65840000015993 -24.48149999982508)
543,Hlabisa,Fluorite,Deposit type unclassified,-28.13329999999496,31.900000000199896,South Africa,,POINT (31.9000000001999 -28.13329999999496)
544,Vergenoeg,Fluorite,Tin-granite-related,-25.255299999595252,28.581100000364756,South Africa,,POINT (28.58110000036476 -25.25529999959525)
545,Marico district,Fluorite,Mississippi Valley-type F,-25.717000000449616,26.09199999990011,South Africa,,POINT (26.09199999990011 -25.71700000044962)
546,Zwartkloof,Fluorite,Tin granite,-24.85769999955528,28.17070000000507,South Africa,,POINT (28.17070000000507 -24.85769999955528)
547,Jebel Semeih (J. Sumayh),Fluorite,Deposit type unclassified,12.731600000239894,30.837100000064993,Sudan,,POINT (30.83710000006499 12.73160000023989)
548,Hammam Zriba,Fluorite,Salt-Related Carbonate-Hosted F,36.34150000042473,10.20440000005999,Tunisia,,POINT (10.20440000005999 36.34150000042473)
549,Badu,Fluorite,"Related to volcanics of ""normal evolution""",28.024999999850138,118.90079999992008,China,,POINT (118.9007999999201 28.02499999985014)
550,Chenlou,Fluorite,Deposit type unclassified,33.76670000040474,112.08329999969533,China,,POINT (112.0832999996953 33.76670000040474)
551,Donggangshan,Fluorite,"Related to volcanics of ""normal evolution""",29.183299999895155,112.9832999996953,China,,POINT (112.9832999996953 29.18329999989515)
552,Houshu,Fluorite,"Related to volcanics of ""normal evolution""",28.916700000204912,119.70000000009998,China,,POINT (119.7000000001 28.91670000020491)
553,Huahe,Fluorite,Peralkaline to Alkaline-Intrusion-Related F,31.400000000299826,114.56669999990515,China,,POINT (114.5666999999052 31.40000000029983)
554,Huayuan district,Fluorite,Mississippi Valley-type F,28.58529999979521,109.47390000038479,China,,POINT (109.4739000003848 28.58529999979521)
555,Hushan,Fluorite,"Related to volcanics of ""normal evolution""",28.66669999980519,118.93330000039475,China,,POINT (118.9333000003948 28.66669999980519)
556,Jianshan,Fluorite,"Related to volcanics of ""normal evolution""",32.533300000394775,113.85000000009995,China,,POINT (113.8500000001 32.53330000039477)
557,Mahuaping,Fluorite,Tin-granite-related,27.300000000399734,100.08330000029486,China,,POINT (100.0833000002949 27.30000000039973)
558,Shuangjiangkou,Fluorite,Deposit type unclassified,26.950000000199907,112.86749999972528,China,,POINT (112.8674999997253 26.95000000019991)
559,Sumochagan Obo,Fluorite,"Related to volcanics of ""normal evolution""",43.12309999986513,111.27000000039976,China,,POINT (111.2700000003998 43.12309999986513)
560,Taolin,Fluorite,Tin granite,29.3667000002049,113.45000000000005,China,,POINT (113.45 29.3667000002049)
561,Yangjia-Wuyi,Fluorite,"Related to volcanics of ""normal evolution""",28.98929999999507,119.88929999999505,China,,POINT (119.889299999995 28.98929999999507)
562,Yinzishan,Fluorite,"Related to volcanics of ""normal evolution""",30.5832999997952,119.867500000125,China,,POINT (119.867500000125 30.5832999997952)
563,Zhuancum,Fluorite,Deposit type unclassified,30.53329999989512,118.76749999962533,China,,POINT (118.7674999996253 30.53329999989512)
564,Amba Dongar,Fluorite,Carbonatite-Related F,21.99690000023486,74.06279999992012,India,,POINT (74.06279999992012 21.99690000023486)
565,Karadzhal,Fluorite,"Skarns, greisens, veins, and replacements related to strongly differentiated granites",49.981899999885115,78.72990000038476,Kazakhstan,,POINT (78.72990000038476 49.98189999988512)
566,Adag,Fluorite,Alkaline-Volcanic-Related Epithermal F,46.499999999800195,109.33300000034978,Mongolia,,POINT (109.3330000003498 46.4999999998002)
567,Berkh,Fluorite,Alkaline-Volcanic-Related Epithermal F,47.7732999997952,111.16929999979521,Mongolia,,POINT (111.1692999997952 47.7732999997952)
568,Bor Ondor,Fluorite,Alkaline-Volcanic-Related Epithermal F,46.268100000414734,109.44170000025485,Mongolia,,POINT (109.4417000002549 46.26810000041473)
569,Mushugai-Khudag,Fluorite,Carbonatite-Related F,44.37289999983517,104.16290000013498,Mongolia,,POINT (104.162900000135 44.37289999983517)
570,Urgun (Örgön),Fluorite,Alkaline-Volcanic-Related Epithermal F,44.705800000169916,110.73889999983521,Mongolia,,POINT (110.7388999998352 44.70580000016992)
571,Zuum-Tsagaan-Del,Fluorite,Alkaline-Volcanic-Related Epithermal F,46.36709999996509,110.04169999995509,Mongolia,,POINT (110.0416999999551 46.36709999996509)
572,Kalat district,Fluorite,Mississippi Valley-type F,29.437900000184925,67.14849999997506,Pakistan,,POINT (67.14849999997506 29.43790000018492)
573,Auninsky,Fluorite,Peralkaline to Alkaline-Intrusion-Related F,54.900000000099965,113.11670000010497,Russia,,POINT (113.116700000105 54.90000000009996)
574,Chaakhol,Fluorite,Carbonatite-Related F,51.90970000015494,92.39720000017991,Russia,,POINT (92.39720000017991 51.90970000015494)
575,Kalangui,Fluorite,"Related to volcanics of ""normal evolution""",51.01079999962036,116.52939999981015,Russia,,POINT (116.5293999998102 51.01079999962036)
576,Karasug,Fluorite,Carbonatite-Related F,51.30509999966529,92.1324999999751,Russia,,POINT (92.1324999999751 51.30509999966529)
577,Naransky,Fluorite,Peralkaline to Alkaline-Intrusion-Related F,50.91670000030484,105.61669999980523,Russia,,POINT (105.6166999998052 50.91670000030484)
578,Pogranichny,Fluorite,Tin-granite-related,44.16670000030484,132.18329999999503,Russia,,POINT (132.183299999995 44.16670000030484)
579,Suran I & Suran II,Fluorite,Subalkaline-volcanic-related epithermal veins and replacements,53.83699999985015,57.80890000003501,Russia,,POINT (57.80890000003501 53.83699999985015)
580,"Yermakovka (Yermakovsky, Ermakovsky)",Fluorite,Peralkaline to Alkaline-Intrusion-Related F,51.6736999996553,109.56050000007502,Russia,,POINT (109.560500000075 51.6736999996553)
581,Takob,Fluorite,Deposit type unclassified,38.837100000264854,68.93870000040476,Tajikistan,,POINT (68.93870000040476 38.83710000026485)
582,Ban Hong,Fluorite,Subalkaline-Volcanic-Related Epithermal F,18.212699999905112,98.81889999973527,Thailand,,POINT (98.81889999973527 18.21269999990511)
583,Doi Tao district,Fluorite,Deposit type unclassified,17.879199999780212,98.77499999965033,Thailand,,POINT (98.77499999965033 17.87919999978021)
584,Yang Hak district,Fluorite,Deposit type unclassified,13.366699999805178,99.46670000040473,Thailand,,POINT (99.46670000040473 13.36669999980518)
585,Kizilcaören (a.k.a. Beylikahir),Fluorite,Carbonatite-Related F,39.61699999985018,31.36499999965031,Turkey,,POINT (31.36499999965031 39.61699999985018)
586,Suppatash,Fluorite,Deposit type unclassified,41.205799999970054,70.53309999976523,Uzbekistan,,POINT (70.53309999976523 41.20579999997005)
587,Nui Phao,Fluorite,Tin-granite-related,21.647900000284835,105.66700000005,Vietnam,,POINT (105.66700000005 21.64790000028484)
588,Moina,Fluorite; Beryllium,Tin-granite-related; Non-pegmatite,-41.48620000002995,146.06870000040476,Australia,,POINT (146.0687000004048 -41.48620000002995)
589,Speewah,Fluorite,Carbonatite-Related F,-16.407500000024925,127.98390000008499,Australia,,POINT (127.983900000085 -16.40750000002492)
590,Argentolle,Fluorite,Salt-Related Carbonate-Hosted F,46.97400000039977,4.077999999900101,France,,POINT (4.077999999900101 46.97400000039977)
591,Escaro,Fluorite,Salt-Related Carbonate-Hosted F,42.54139999961035,2.314799999920126,France,,POINT (2.314799999920126 42.54139999961035)
592,Montroc,Fluorite,Salt-Related Carbonate-Hosted F,43.82109999976524,2.378199999930075,France,,POINT (2.378199999930075 43.82109999976524)
593,Le Barlet,Fluorite,Salt-Related Carbonate-Hosted F,45.04919999998009,3.4951000000650083,France,,POINT (3.495100000065008 45.04919999998009)
594,Le Burc,Fluorite,Salt-Related Carbonate-Hosted F,43.873100000164925,2.406000000399729,France,,POINT (2.406000000399729 43.87310000016492)
595,Rossignol,Fluorite,Salt-Related Carbonate-Hosted F,46.421099999965065,1.308099999615365,France,,POINT (1.308099999615365 46.42109999996507)
596,Pakozd,Fluorite,Tin granite,47.21800000019988,18.50500000034981,Hungary,,POINT (18.50500000034981 47.21800000019988)
597,Bruncu Molentinu,Fluorite,Deposit type unclassified,39.43599999960037,9.475000000049988,Italy,,POINT (9.475000000049988 39.43599999960037)
598,Muscadroxiu-GennaTres Montis-S'Acqua Frida (Silius mine),Fluorite,Salt-Related Carbonate-Hosted F,39.51700000005002,9.25600000019989,Italy,,POINT (9.25600000019989 39.51700000005002)
599,Pianciano-Castel Giuliano,Fluorite,Tuffaceous Limy Lacustrine Sediment-hosted F,42.067000000349765,12.144099999615321,Italy,,POINT (12.14409999961532 42.06700000034976)
600,Santo Maria di Sala,Fluorite,Tuffaceous Limy Lacustrine Sediment-hosted F,42.575500000124975,11.746900000034998,Italy,,POINT (11.746900000035 42.57550000012498)
601,Asturias region,Fluorite,Salt-Related Carbonate-Hosted F,43.42770000005498,-5.621900000384642,Spain,,POINT (-5.621900000384642 43.42770000005498)
602,Osor,Fluorite,Salt-Related Carbonate-Hosted F,41.94969999955538,2.5930000003497753,Spain,,POINT (2.593000000349775 41.94969999955538)
603,Sierra Gador district,Fluorite,Deposit type unclassified,36.925100000164946,-2.5421000001148855,Spain,,POINT (-2.542100000114885 36.92510000016495)
604,Northern Pennine Orefield,Fluorite,Mississippi Valley-type F,54.79460000038978,-2.1734000000099627,United Kingdom,,POINT (-2.173400000009963 54.79460000038978)
605,Southern Pennine Orefield,Fluorite,Mississippi Valley-type F,53.2742999998452,-1.6929000000349106,United Kingdom,,POINT (-1.692900000034911 53.2742999998452)
606,Fission (Richardson) mine,Fluorite,Carbonatite-Related F,45.0599999998002,-78.19000000029973,Canada,,POINT (-78.19000000029973 45.0599999998002)
607,St. Lawrence district,Fluorite,Peralkaline to Alkaline-Intrusion-Related F,46.915900000184934,-55.40719999997998,Canada,,POINT (-55.40719999997998 46.91590000018493)
608,Aguachile,Fluorite; Beryllium,Alkaline-Volcanic-Related Epithermal F; Carbonate-hosted Be,29.258199999630335,-102.54240000025976,Mexico,,POINT (-102.5424000002598 29.25819999963034)
609,El Refugio mine,Fluorite,"Related to volcanics of ""normal evolution""",21.570200000030013,-100.17709999996498,Mexico,,POINT (-100.177099999965 21.57020000003001)
610,Encantada-Buenavista,Fluorite,Salt-Related Carbonate-Hosted F,28.542399999960082,-102.49639999956031,Mexico,,POINT (-102.4963999995603 28.54239999996008)
611,Las Cuevas,Fluorite,"Related to volcanics of ""normal evolution""",21.944099999815194,-100.58159999984008,Mexico,,POINT (-100.5815999998401 21.94409999981519)
612,Parral district,Fluorite,Deposit type unclassified,26.850000000399746,-105.86220000022979,Mexico,,POINT (-105.8622000002298 26.85000000039975)
613,"La Azul deposit, Taxco district",Fluorite,Deposit type unclassified,18.58899999975023,-99.54459999979014,Mexico,,POINT (-99.54459999979014 18.58899999975023)
614,Brown's Canyon district,Fluorite,Deposit type unclassified,38.631599999740274,-106.06640000015983,United States of America,Colorado,POINT (-106.0664000001598 38.63159999974027)
615,Crystal Mountain,Fluorite,"Skarns, greisens, veins, and replacements related to strongly differentiated granites",46.00619999983019,-113.88809999961524,United States of America,Montana,POINT (-113.8880999996152 46.00619999983019)
616,Daisy mine,Fluorite,Alkaline-Volcanic-Related Epithermal F,36.889599999840186,-116.68110000036467,United States of America,Nevada,POINT (-116.6811000003647 36.88959999984019)
617,Great Eagle,Fluorite,Alkaline-Volcanic-Related Epithermal F,32.72550000002502,-108.67630000004493,United States of America,New Mexico,POINT (-108.6763000000449 32.72550000002502)
618,Hicks Dome,Fluorite; Beryllium,Carbonatite-Related F; Pegmatite,37.520999999650314,-88.35399999970019,United States of America,Illinois,POINT (-88.35399999970019 37.52099999965031)
619,Huckleberry mine,Fluorite,Alkaline-Volcanic-Related Epithermal F,33.31709999996508,-108.82140000040965,United States of America,New Mexico,POINT (-108.8214000004097 33.31709999996508)
620,Illinois-Kentucky fluorspar district,Fluorite; Gallium,Mississippi Valley-type,37.29899999995007,-88.2349999996502,United States of America,Kentucky,POINT (-88.2349999996502 37.29899999995007)
621,Indian Peak district,Fluorite,Alkaline-Volcanic-Related Epithermal F,38.21669999960534,-113.83329999959528,United States of America,At Cougar Spar Mine,POINT (-113.8332999995953 38.21669999960534)
622,Jamestown district,Fluorite,Peralkaline to Alkaline-Intrusion-Related F,40.12799999980018,-105.39870000000496,United States of America,"At Burlington Mine, Colorado",POINT (-105.398700000005 40.12799999980018)
623,Lost River,Fluorite; Beryllium; Tin,Skarn and Greisen-Hosted Be-F,65.4756000003398,-167.15499999985008,United States of America,Alaska,POINT (-167.1549999998501 65.4756000003398)
624,Meyers Cove,Fluorite,Subalkaline-volcanic-related epithermal veins and replacements,44.85409999971529,-114.50360000003991,United States of America,"At Big Lead Mine, Idaho",POINT (-114.5036000000399 44.85409999971529)
625,Northgate district,Fluorite,"Alkaline-volcanic-related epithermal veins, breccia-fills, and carbonate replacements",40.92440000035975,-106.27439999996,United States of America,"At Pender Mine, Colorado",POINT (-106.27439999996 40.92440000035975)
626,Rome occurrence,Fluorite,Tuffaceous Limy Lacustrine Sediment-hosted F,42.80800000019991,-117.71989999978513,United States of America,Oregon,POINT (-117.7198999997851 42.80800000019991)
627,Sweetwater district,Fluorite; Barite,Mississippi Valley-type F; Residual,35.60139999981021,-84.4611000003647,United States of America,Tennessee,POINT (-84.4611000003647 35.60139999981021)
628,White Eagle,Fluorite,Alkaline-Volcanic-Related Epithermal F,32.61230000034482,-107.75409999971515,United States of America,New Mexico,POINT (-107.7540999997152 32.61230000034482)
629,Cerros Negros,Fluorite,"Volcanics of ""normal"" evolution",-32.5019000000849,-64.79449999987503,Argentina,,POINT (-64.79449999987503 -32.5019000000849)
630,Mato Preto,Fluorite,Carbonatite-Related F,-24.747100000164835,-49.18100000024975,Brazil,,POINT (-49.18100000024975 -24.74710000016483)
631,Santa Catarina district,Fluorite,"Alkaline-intrusion-related veins, skarns, and carbonate replacements",-26.62220000012985,-49.259499999625234,Brazil,At Shaft 3 on the Segunda Linha Torrens vein,POINT (-49.25949999962523 -26.62220000012985)
632,Abbeytown,Gallium,Ga in Mississippi Valley-type,54.22000000019989,-8.530000000299708,Ireland,,POINT (-8.530000000299708 54.22000000019989)
633,Açailândia,Gallium,Ga in Bauxite,-4.9245555558941305,-47.505180555738036,Brazil,,POINT (-47.50518055573804 -4.924555555894131)
634,Adamaoua,Gallium,Ga in Bauxite,7.412991666232472,13.437138889148457,Cameroon,,POINT (13.43713888914846 7.412991666232472)
635,Admiral Bay,Gallium,Ga in Mississippi Valley-type,-19.226944444130766,122.27999999980022,Australia,,POINT (122.2799999998002 -19.22694444413077)
636,Afterthought,Gallium,"Ga in Volcanogenic Massive Sulfide, Kuroko type",40.73333299991805,-122.08333299991796,United States of America,California,POINT (-122.083332999918 40.73333299991805)
637,Alapaevsk,Gallium,Ga in Bauxite,57.844183332994476,61.69873888878874,Russia,,POINT (61.69873888878874 57.84418333299448)
638,Alcoa,Gallium,Ga in Bauxite,-32.037045000326486,115.83288199990443,Australia,,POINT (115.8328819999044 -32.03704500032649)
639,Almeirim,Gallium,Ga in Bauxite,-0.898852777933314,-52.377461111241246,Brazil,,POINT (-52.37746111124125 -0.898852777933314)
640,Amapá,Gallium,Ga in Bauxite,1.4391111110889483,-52.02201111152351,Brazil,,POINT (-52.02201111152351 1.439111111088948)
641,Amarkantak,Gallium,Ga in Bauxite,22.70652777733511,81.73929444468291,India,,POINT (81.73929444468291 22.70652777733511)
642,Ammonoosuc,Gallium,"Ga in Volcanogenic Massive Sulfide, Kuroko type",44.26861100009762,-71.63083299984305,United States of America,New Hampshire,POINT (-71.63083299984305 44.26861100009762)
643,Anantagiri Hills,Gallium,Ga in Bauxite,18.344623999697887,82.86314900022626,India,,POINT (82.86314900022626 18.34462399969789)
644,Andoom,Gallium,Ga in Bauxite,-12.533877778136912,141.83690833325306,Australia,,POINT (141.8369083332531 -12.53387777813691)
645,Angarsky,Gallium,Ga in Bauxite,52.46005555591921,103.9765027779809,Russia,,POINT (103.9765027779809 52.46005555591921)
646,Antler,Gallium,"Ga in Volcanogenic Massive Sulfide, Kuroko type",63.819721999670605,-148.9599999997002,United States of America,Alaska,POINT (-148.9599999997002 63.81972199967061)
647,Apex Mine,Gallium; Germanium; Indium,Ga and Ge in Kipushi Cu-Zn,37.06944399984076,-113.8036110001475,United States of America,Utah,POINT (-113.8036110001475 37.06944399984076)
648,Aqtas,Gallium,Ga in Bauxite,49.84176666649853,73.01838611123009,Kazakhstan,,POINT (73.01838611123009 49.84176666649853)
649,Arctic,Gallium,"Ga in Volcanogenic Massive Sulfide, Kuroko type",67.17388899987748,-156.38694399986568,United States of America,Alaska,POINT (-156.3869439998657 67.17388899987748)
650,Arditurri,Gallium,Ga in Clastic-dominated Pb-Zn,43.16999999980021,-1.4899999998000908,Spain,,POINT (-1.489999999800091 43.16999999980021)
651,Arqalyk,Gallium,Ga in Bauxite,50.202119444456855,66.91934999970277,Kazakhstan,,POINT (66.91934999970277 50.20211944445686)
652,Ashland,Gallium,"Ga in Volcanogenic Massive Sulfide, Kuroko type",33.27222199974557,-85.95555599980952,United States of America,Alabama,POINT (-85.95555599980952 33.27222199974557)
653,Astana,Gallium,Ga in Bauxite,51.20858055514856,71.51327222193555,Kazakhstan,,POINT (71.51327222193555 51.20858055514856)
654,Auronzo,Gallium,Ga in Mississippi Valley-type,46.55097000036528,12.443589999778737,Italy,,POINT (12.44358999977874 46.55097000036528)
655,Austinville,Gallium,Ga in Mississippi Valley-type,36.84694444473041,-80.9202777777972,United States of America,Virginia,POINT (-80.9202777777972 36.84694444473041)
656,Awaso,Gallium,Ga in Bauxite,6.247544444520543,-2.287402777715954,Ghana,,POINT (-2.287402777715954 6.247544444520543)
657,Bafangshan,Gallium,Ga in Clastic-dominated Pb-Zn,33.94999999970025,106.833333000018,China,,POINT (106.833333000018 33.94999999970025)
658,Bainiuchang,Gallium; Indium; Germanium,"Ga, Ge, and In in Clastic-dominated Sedimentary exhalative Pb-Zn",23.599999999700287,104.23999999970027,China,,POINT (104.2399999997003 23.59999999970029)
659,Bakhuis Mountains,Gallium,Ga in Bauxite,4.348119444257009,-56.75009722190924,Suriname,Guyana,POINT (-56.75009722190924 4.348119444257009)
660,Balaklala,Gallium,"Ga in Volcanogenic Massive Sulfide, Kuroko type",40.725277999879836,-122.49805599998439,United States of America,California,POINT (-122.4980559999844 40.72527799987984)
661,Bald Mountain,Gallium,"Ga in Volcanogenic Massive Sulfide, Kuroko type",39.50905000035726,-120.83935999976416,United States of America,California,POINT (-120.8393599997642 39.50905000035726)
662,Ballinalack,Gallium,Ga in Mississippi Valley-type,53.63586600011587,-7.46281300031967,Ireland,,POINT (-7.46281300031967 53.63586600011587)
663,Balmat-Edwards,Gallium,Ga in Clastic-dominated Pb-Zn,44.25194444468042,-75.39972222220274,United States of America,New York,POINT (-75.39972222220274 44.25194444468042)
664,Bamboutos Mount,Gallium,Ga in Bauxite,5.68065555530967,10.215158333390434,Cameroon,,POINT (10.21515833339043 5.68065555530967)
665,Barrett,Gallium,"Ga in Volcanogenic Massive Sulfide, Kuroko type",44.96560000013994,-67.22193000006939,United States of America,Maine,POINT (-67.22193000006939 44.96560000013994)
666,Barzas,Gallium,Ga in Bauxite,55.54300833376766,86.09507500021112,Russia,,POINT (86.09507500021112 55.54300833376766)
667,Beatson,Gallium,"Ga in Volcanogenic Massive Sulfide, Kuroko type",60.058332999968,-147.90333300011784,United States of America,Alaska,POINT (-147.9033330001178 60.058332999968)
668,Belgaum,Gallium,Ga in Bauxite,11.746658333315452,78.14452777773482,India,,POINT (78.14452777773482 11.74665833331545)
669,Belinsky,Gallium,Ga in Bauxite,53.01426666627367,43.20978333343413,Russia,,POINT (43.20978333343413 53.01426666627367)
670,Berdsk-Maisy,Gallium,Ga in Bauxite,54.66252499992885,83.34286388845777,Russia,,POINT (83.34286388845777 54.66252499992885)
671,Betts Cove,Gallium,"Ga in Volcanogenic Massive Sulfide, Cypress type",49.88333299961829,-55.633332999618176,Canada,,POINT (-55.63333299961818 49.88333299961829)
672,Biela Lipa,Gallium,Ga in Bauxite,44.71685900024272,21.246906000211766,Serbia,,POINT (21.24690600021177 44.71685900024272)
673,Big Bend,Gallium,"Ga in Volcanogenic Massive Sulfide, Kuroko type",39.69166699963239,-121.43138899970256,United States of America,California,POINT (-121.4313889997026 39.69166699963239)
674,Big Hill,Gallium,"Ga in Volcanogenic Massive Sulfide, Kuroko type",44.965277999679984,-67.21111100027241,United States of America,Maine,POINT (-67.21111100027241 44.96527799967998)
675,Big Mike,Gallium,"Ga in Volcanogenic Massive Sulfide, Cypress type",40.542222000145216,-117.55694399976574,United States of America,Nevada,POINT (-117.5569439997657 40.54222200014522)
676,Big Syncline,Gallium,Ga in Clastic-dominated Pb-Zn,-29.25722222232764,18.801944444280707,South Africa,,POINT (18.80194444428071 -29.25722222232764)
677,Bilaspur,Gallium,Ga in Bauxite,22.093897222179123,82.20245277807328,India,,POINT (82.20245277807328 22.09389722217912)
678,Binghampton,Gallium,"Ga in Volcanogenic Massive Sulfide, Kuroko type",34.45583299969326,-112.1938890001772,United States of America,Arizona,POINT (-112.1938890001772 34.45583299969326)
679,Bintan Island,Gallium,Ga in Bauxite,0.781630555205993,104.54626666667338,Indonesia,,POINT (104.5462666666734 0.781630555205993)
680,Black Angel,Gallium,Ga in Clastic-dominated Pb-Zn,71.13277799990482,-51.28277799980481,Greenland,,POINT (-51.28277799980481 71.13277799990482)
681,Black Mountain,Gallium,Ga in Clastic-dominated Pb-Zn,-29.232499999575282,18.730277777997117,South Africa,,POINT (18.73027777799712 -29.23249999957528)
682,Bleiberg,Gallium,Ga in Mississippi Valley-type,46.62499999955037,13.651666666583424,Austria,,POINT (13.65166666658342 46.62499999955037)
683,Bleikvassli,Gallium,Ga in Clastic-dominated Pb-Zn,65.9233330001179,13.879722000370066,Norway,,POINT (13.87972200037007 65.92333300011791)
684,Bleiriese,Gallium,Ga in Mississippi Valley-type,46.729029999934596,13.58205999996909,Austria,,POINT (13.58205999996909 46.7290299999346)
685,Blue Ledge,Gallium,"Ga in Volcanogenic Massive Sulfide, Kuroko type",41.949999999900115,-123.11666699998204,United States of America,California,POINT (-123.116666999982 41.94999999990011)
686,Blue Moon,Gallium,"Ga in Volcanogenic Massive Sulfide, Kuroko type",35.46777799995476,-115.51333299991796,United States of America,California,POINT (-115.513332999918 35.46777799995476)
687,Boddington,Gallium,Ga in Bauxite,-32.799999999999955,116.46700000005,Australia,,POINT (116.46700000005 -32.79999999999995)
688,Boé,Gallium,Ga in Bauxite,11.749188888856168,-14.217011111173804,Guinea-Bissau,,POINT (-14.2170111111738 11.74918888885617)
689,Bokson,Gallium,Ga in Bauxite,51.62647500002129,38.97150277803081,Russia,,POINT (38.97150277803081 51.62647500002129)
690,Bonnifield,Gallium,"Ga in Volcanogenic Massive Sulfide, Kuroko type",63.91999999970028,-147.37999999980013,United States of America,Alaska,POINT (-147.3799999998001 63.91999999970028)
691,Britannia,Gallium,"Ga in Volcanogenic Massive Sulfide, Kuroko type",49.60999999970028,-123.14166699993206,Canada,,POINT (-123.1416669999321 49.60999999970028)
